,pref,city,town,other,lon_min,lat_min,lon_max,lat_max
0,北海道,札幌市中央区,宮ケ丘（番地）,,141.3038888378988,43.04558543414606,141.31601652474825,43.057407273558724
1,北海道,札幌市中央区,円山,,141.3086447412192,43.0445717141198,141.32044663322938,43.05285064225728
2,北海道,札幌市中央区,円山西町,E1,141.29417070095744,43.025520557309264,141.31189897014286,43.0444909980724
3,北海道,札幌市中央区,円山西町,E2,141.29764119531134,43.04441335489617,141.30289425050125,43.049312351395
4,北海道,札幌市中央区,宮の森,E1,141.2837320693991,43.03521730110491,141.2977868260477,43.058188447824605
5,北海道,札幌市中央区,宮の森,E2,141.30285710239824,43.05078718413323,141.30798504365774,43.0562537508104
6,北海道,札幌市中央区,宮の森,E3,141.29665445268554,43.04441335489617,141.3013615845848,43.04935577429678
7,北海道,札幌市中央区,盤渓,,141.201892380681,42.99764877993358,141.30255405726385,43.04874732954333
8,北海道,札幌市中央区,宮の森一条１丁目,,141.312102542714,43.06365190074263,141.31412657232076,43.065352907515965
9,北海道,札幌市中央区,宮の森一条２丁目,,141.31139154426944,43.06294443497973,141.3127597248112,43.06407636589757
10,北海道,札幌市中央区,宮の森一条３丁目,,141.31058908628296,43.06228637563498,141.31187384726329,43.063482585888
11,北海道,札幌市中央区,宮の森一条４丁目,,141.31011462643505,43.061742438617124,141.31136759795442,43.062704491338145
12,北海道,札幌市中央区,宮の森一条５丁目,,141.30971749555727,43.06129706052667,141.31148445025363,43.062208730479185
13,北海道,札幌市中央区,宮の森一条６丁目,,141.3076195271497,43.05957516212113,141.31158946063766,43.06147491129301
14,北海道,札幌市中央区,宮の森一条７丁目,,141.3081252809603,43.058716142647725,141.31027548616092,43.06024086590728
15,北海道,札幌市中央区,宮の森一条８丁目,,141.3074696227409,43.05819292391855,141.3096736314193,43.059509589153976
16,北海道,札幌市中央区,宮の森一条９丁目,,141.30648364502252,43.057062413081084,141.30924936428175,43.05900288604646
17,北海道,札幌市中央区,宮の森一条１０丁目,,141.3036725851487,43.05583902944292,141.30850869114448,43.05840454814899
18,北海道,札幌市中央区,宮の森一条１１丁目,,141.3027564205951,43.05488453173334,141.30545295138526,43.0570372399109
19,北海道,札幌市中央区,宮の森一条１２丁目,,141.30209204312652,43.05348616663479,141.30420127606115,43.05563536945077
20,北海道,札幌市中央区,宮の森一条１３丁目,,141.30107730831224,43.05137321296409,141.30412556782116,43.05429931361857
21,北海道,札幌市中央区,宮の森一条１４丁目,,141.29870317929112,43.048513415102946,141.30428022376339,43.051602861874755
22,北海道,札幌市中央区,宮の森一条１５丁目,,141.29591306241196,43.04692446949589,141.29956454356835,43.05067569402939
23,北海道,札幌市中央区,宮の森一条１６丁目,,141.29226985170433,43.044098953874744,141.29764119531134,43.0484884371241
24,北海道,札幌市中央区,宮の森一条１７丁目,,141.29203984300304,43.04144214910862,141.29395540418298,43.0453113101644
25,北海道,札幌市中央区,宮の森一条１８丁目,,141.29014230402393,43.038558219349504,141.29557903713658,43.04326700740959
26,北海道,札幌市中央区,宮の森二条１丁目,,141.31023485789908,43.06407636589757,141.31351094634468,43.066403772006126
27,北海道,札幌市中央区,宮の森二条２丁目,,141.3095640775769,43.063482585888,141.312102542714,43.06520339301229
28,北海道,札幌市中央区,宮の森二条３丁目,,141.3085171794456,43.062704491338145,141.31139154426944,43.064733500287986
29,北海道,札幌市中央区,宮の森二条４丁目,,141.30800904646327,43.06219978269083,141.31058908628296,43.063814342129994
30,北海道,札幌市中央区,宮の森二条５丁目,,141.30708349687794,43.06113658381891,141.31028831152886,43.06332306300894
31,北海道,札幌市中央区,宮の森二条６丁目,,141.30605380766565,43.0609188961122,141.309228702488,43.06258113531468
32,北海道,札幌市中央区,宮の森二条７丁目,,141.30518499820505,43.05948960752375,141.30894545573355,43.06172651974673
33,北海道,札幌市中央区,宮の森二条８丁目,,141.30439898116379,43.05851353351548,141.30809863587697,43.06095909346662
34,北海道,札幌市中央区,宮の森二条９丁目,,141.30335250804583,43.057787738286514,141.30682042297033,43.06027287212866
35,北海道,札幌市中央区,宮の森二条１０丁目,,141.30180635377008,43.05694635590659,141.30542206992664,43.05936696325036
36,北海道,札幌市中央区,宮の森二条１１丁目,,141.29988386113786,43.05563536945077,141.30348771533176,43.05880608189022
37,北海道,札幌市中央区,宮の森二条１２丁目,,141.29946542476765,43.0542853990786,141.3027564205951,43.05736120015917
38,北海道,札幌市中央区,宮の森二条１３丁目,,141.29852207644694,43.05219559163158,141.3020848736522,43.055156357356836
39,北海道,札幌市中央区,宮の森二条１４丁目,,141.29848060580505,43.05067569402939,141.30208695021162,43.052641447928586
40,北海道,札幌市中央区,宮の森二条１５丁目,,141.2936867045439,43.047734946591966,141.29799964311195,43.050528482842395
41,北海道,札幌市中央区,宮の森二条１６丁目,,141.28703422777997,43.04551002536055,141.29510436303255,43.04882390158331
42,北海道,札幌市中央区,宮の森二条１７丁目,,141.2893147157663,43.04122587544517,141.29274871282365,43.046425992112376
43,北海道,札幌市中央区,宮の森三条１丁目,,141.30722756575784,43.06520339301229,141.3114436456326,43.068081843897275
44,北海道,札幌市中央区,宮の森三条２丁目,,141.30656847370346,43.064733500287986,141.31023485789908,43.06700530703431
45,北海道,札幌市中央区,宮の森三条３丁目,,141.30583291896127,43.06407834071162,141.3095640775769,43.06633639171864
46,北海道,札幌市中央区,宮の森三条４丁目,,141.30488704392593,43.06332306300894,141.3087801761345,43.06565059654161
47,北海道,札幌市中央区,宮の森三条５丁目,,141.3040331481774,43.06258113531468,141.30800904646327,43.064851307709745
48,北海道,札幌市中央区,宮の森三条６丁目,,141.30310918756985,43.06172651974673,141.30708349687794,43.0641226772423
49,北海道,札幌市中央区,宮の森三条７丁目,,141.30219526765828,43.06045182429256,141.30605380766565,43.063317224595544
50,北海道,札幌市中央区,宮の森三条８丁目,,141.30147237891043,43.059783168242795,141.30459055019648,43.06239693046098
51,北海道,札幌市中央区,宮の森三条９丁目,,141.30033028446775,43.05924839698149,141.30383698115898,43.061654597025154
52,北海道,札幌市中央区,宮の森三条１０丁目,,141.30004166837477,43.057883514437314,141.3032089302547,43.06046380966327
53,北海道,札幌市中央区,宮の森三条１１丁目,,141.29767281084858,43.05735812846711,141.30004166837477,43.05969255269813
54,北海道,札幌市中央区,宮の森三条１２丁目,,141.2953480088474,43.05474719818774,141.29993221136428,43.058243198228084
55,北海道,札幌市中央区,宮の森三条１３丁目,,141.29623819075593,43.050491579865735,141.29920474678798,43.05482170546649
56,北海道,札幌市中央区,宮の森四条１丁目,,141.30515556683773,43.0669484908923,141.3082882020198,43.06908918920219
57,北海道,札幌市中央区,宮の森四条２丁目,,141.30445155350216,43.06638225734268,141.30717035765483,43.068026833647245
58,北海道,札幌市中央区,宮の森四条３丁目,,141.30364480706976,43.065806611257486,141.3066124708393,43.06746042659223
59,北海道,札幌市中央区,宮の森四条４丁目,,141.30267973692625,43.064851307709745,141.30600644349465,43.066807576430634
60,北海道,札幌市中央区,宮の森四条５丁目,,141.3017725101862,43.0640987627355,141.30488704392593,43.06604707186571
61,北海道,札幌市中央区,宮の森四条６丁目,,141.30081205831814,43.063317224595544,141.30399879366195,43.065318968929354
62,北海道,札幌市中央区,宮の森四条７丁目,,141.30017113381467,43.062743426467755,141.30310918756985,43.06455426761405
63,北海道,札幌市中央区,宮の森四条８丁目,,141.29895016625085,43.061654597025154,141.30253321583945,43.06403800948869
64,北海道,札幌市中央区,宮の森四条９丁目,,141.2975675767834,43.06046380966327,141.30147237891043,43.063052688647986
65,北海道,札幌市中央区,宮の森四条１０丁目,,141.2962658659892,43.05880608189022,141.30033028446775,43.061946169317395
66,北海道,札幌市中央区,宮の森四条１１丁目,,141.29259154098645,43.05655510222497,141.29839642176614,43.06090936946423
67,北海道,札幌市中央区,宮の森四条１２丁目,,141.28894612992437,43.05363670397863,141.29725886026426,43.05744719534982
68,北海道,札幌市中央区,宮の森四条１３丁目,,141.2925559429309,43.052088479281906,141.29763231260245,43.054789527706184
69,北海道,札幌市中央区,双子山１丁目,,141.31635926246267,43.042521133980394,141.3202346849188,43.046187288089534
70,北海道,札幌市中央区,双子山２丁目,,141.3131326087153,43.04266847878485,141.31807065204282,43.04515686420124
71,北海道,札幌市中央区,双子山３丁目,,141.3099041117014,43.04246869000518,141.31671756713436,43.044208657495126
72,北海道,札幌市中央区,双子山４丁目,,141.30981647474914,43.03734562384429,141.31820127629248,43.04299271483489
73,北海道,札幌市中央区,界川１丁目,,141.3164023462542,43.038682581608754,141.31969146571146,43.043933549312385
74,北海道,札幌市中央区,界川２丁目,,141.3143231508111,43.033798940715464,141.317655136024,43.03892151292718
75,北海道,札幌市中央区,界川３丁目,,141.3105690159957,43.033981240887876,141.31678055245587,43.03875383164
76,北海道,札幌市中央区,界川４丁目,,141.31059768527032,43.035970551398584,141.31771797354307,43.04137536799534
77,北海道,札幌市中央区,旭ケ丘１丁目,,141.31830702950884,43.040436707501435,141.32145297907678,43.04407604660571
78,北海道,札幌市中央区,旭ケ丘２丁目,,141.32020942789816,43.038863834886484,141.3228833089864,43.040886496666836
79,北海道,札幌市中央区,旭ケ丘３丁目,,141.31818602406963,43.03852584860552,141.32217419610396,43.040564939909714
80,北海道,札幌市中央区,旭ケ丘４丁目,,141.3218336238495,43.03765162568699,141.32530730429283,43.04002968930857
81,北海道,札幌市中央区,旭ケ丘５丁目,,141.31721502836243,43.03451585302652,141.32447655539795,43.03874029513576
82,北海道,札幌市中央区,旭ケ丘６丁目,,141.3169846509773,43.03593003878627,141.32130843751412,43.038960517226
83,北海道,札幌市中央区,伏見１丁目,,141.32423141853968,43.03591970068446,141.32934531733935,43.03835477535216
84,北海道,札幌市中央区,伏見２丁目,,141.32403141460537,43.03405602118691,141.32912219296907,43.03765162568699
85,北海道,札幌市中央区,伏見３丁目,,141.31950963365944,43.02891986042962,141.3287914866149,43.03492682338228
86,北海道,札幌市中央区,伏見４丁目,,141.32630211433224,43.03181258686387,141.33272600281643,43.03591970068446
87,北海道,札幌市中央区,伏見５丁目,,141.32455779180214,43.02800027912664,141.33662537435438,43.03347638994943
88,北海道,札幌市中央区,円山西町１丁目,,141.30086867877125,43.04670194007261,141.3045221438869,43.049992465966156
89,北海道,札幌市中央区,円山西町２丁目,,141.2973710269929,43.04243983103723,141.30562463399974,43.04679692862347
90,北海道,札幌市中央区,円山西町３丁目,,141.30416174181372,43.04105212319324,141.30655615778346,43.04486947490275
91,北海道,札幌市中央区,円山西町４丁目,,141.30113701841518,43.03840792497,141.30646683803886,43.04340868463382
92,北海道,札幌市中央区,円山西町５丁目,,141.30001380058926,43.035515077306165,141.3063038323508,43.0396407600969
93,北海道,札幌市中央区,円山西町６丁目,,141.30545483949507,43.03826998308379,141.30959531160607,43.04344878929913
94,北海道,札幌市中央区,円山西町７丁目,,141.3082153492781,43.04101639813066,141.31142037947882,43.043502444148864
95,北海道,札幌市中央区,円山西町８丁目,,141.3052337323353,43.0434099821644,141.30846349698268,43.04636776179279
96,北海道,札幌市中央区,円山西町９丁目,,141.30809290207043,43.043387103138684,141.31416113835274,43.04570803714181
97,北海道,札幌市中央区,円山西町１０丁目,,141.30793164819497,43.0447453655028,141.3135024272748,43.04768257254818
98,北海道,札幌市中央区,中島公園,,141.35146365992753,43.0402532484798,141.35665349086776,43.04884507571417
99,北海道,札幌市中央区,宮ケ丘１丁目,,141.31140111946755,43.05720602219249,141.3132735062032,43.05916571209333
100,北海道,札幌市中央区,宮ケ丘２丁目,,141.3096736314193,43.056995143479014,141.3118478491559,43.05897120301885
101,北海道,札幌市中央区,宮ケ丘３丁目,,141.30698684382494,43.05587848275023,141.30999284425366,43.058716142647725
102,北海道,札幌市中央区,大通東１丁目,,141.35667083183463,43.06083532875789,141.3589067633174,43.0629677511818
103,北海道,札幌市中央区,大通東２丁目,,141.3584356427107,43.061088693628236,141.3605004568365,43.063182140631525
104,北海道,札幌市中央区,大通東３丁目,,141.3599928344348,43.06132255932132,141.36203082500728,43.06338679882477
105,北海道,札幌市中央区,大通東４丁目,,141.36154969799017,43.06153889098024,141.36352158235758,43.063590958026026
106,北海道,札幌市中央区,大通東５丁目,,141.36306303202866,43.06173576652059,141.36509986563502,43.06383793252612
107,北海道,札幌市中央区,大通東６丁目,,141.36481335104813,43.06194321524562,141.3667532781327,43.06403354932995
108,北海道,札幌市中央区,大通東７丁目,,141.36626429151087,43.06211612683745,141.36834837404976,43.06424689281212
109,北海道,札幌市中央区,大通東８丁目,,141.36781904973654,43.06224946241019,141.36986071260404,43.06444517591631
110,北海道,札幌市中央区,大通東９丁目,,141.36936503717286,43.06190099021273,141.3715443111987,43.06465213243336
111,北海道,札幌市中央区,大通東１０丁目,,141.37091723294404,43.06256534180203,141.37363074678754,43.0649123063948
112,北海道,札幌市中央区,大通東１１丁目,,141.37284573897387,43.06332260940098,141.3748740351635,43.06516229818112
113,北海道,札幌市中央区,大通東１２丁目,,141.3746058719288,43.06368686333228,141.37732947984875,43.06549040702149
114,北海道,札幌市中央区,大通東１３丁目,,141.37708604821557,43.06443598177771,141.3800577921608,43.0659398200038
115,北海道,札幌市中央区,大通東１４丁目,,141.37958995754607,43.06526610188152,141.3814889077105,43.06626950041901
116,北海道,札幌市中央区,大通西１丁目,,141.35499371521448,43.060003092349774,141.35729601570995,43.06271837532745
117,北海道,札幌市中央区,大通西２丁目,,141.35342351312005,43.05979290138662,141.35548410158538,43.061861517538375
118,北海道,札幌市中央区,大通西３丁目,,141.3517977911181,43.05958544301791,141.35388791145544,43.06224827947204
119,北海道,札幌市中央区,大通西４丁目,,141.35039793663813,43.059371227665665,141.3523201772146,43.061414554129364
120,北海道,札幌市中央区,大通西５丁目,,141.34872026811664,43.05916475218285,141.35074555240342,43.061355039580455
121,北海道,札幌市中央区,大通西６丁目,,141.34722779319395,43.058944373069245,141.34919192546906,43.06089648111239
122,北海道,札幌市中央区,大通西７丁目,,141.34562958956184,43.0587179779513,141.347617030285,43.060788595682496
123,北海道,札幌市中央区,大通西８丁目,,141.34405945759988,43.05851964877728,141.34607561010947,43.06063305999047
124,北海道,札幌市中央区,大通西９丁目,,141.34247510016044,43.058321442704205,141.3445201697133,43.06041862698401
125,北海道,札幌市中央区,大通西１０丁目,,141.34091121514024,43.0580629337295,141.34295610630085,43.06021903273945
126,北海道,札幌市中央区,大通西１１丁目,,141.3393225944877,43.057885401361915,141.34123181560147,43.06004219455958
127,北海道,札幌市中央区,大通西１２丁目,,141.33781160237274,43.05767598073725,141.33982332205005,43.05989903379055
128,北海道,札幌市中央区,大通西１３丁目,,141.33626056253053,43.05745825502235,141.33828094095514,43.059593919964264
129,北海道,札幌市中央区,大通西１４丁目,,141.33466581063058,43.05724320908288,141.33673159589912,43.05944679029392
130,北海道,札幌市中央区,大通西１５丁目,,141.33312913766719,43.057030401755,141.33517694847072,43.059163449327386
131,北海道,札幌市中央区,大通西１６丁目,,141.3315884526112,43.05682338308063,141.33360587753666,43.058939680162965
132,北海道,札幌市中央区,大通西１７丁目,,141.33003383635284,43.05660420494901,141.3320575553709,43.05873187190577
133,北海道,札幌市中央区,大通西１８丁目,,141.32847198293226,43.05640564914336,141.33050405491713,43.05851352186691
134,北海道,札幌市中央区,大通西１９丁目,,141.3268933043221,43.05622392262597,141.32897250746447,43.05830536046775
135,北海道,札幌市中央区,大通西２０丁目,,141.3254939064162,43.05659816895211,141.32722278710347,43.05810055929787
136,北海道,札幌市中央区,大通西２１丁目,,141.3241404291754,43.05641893735128,141.32582874652246,43.05791399394274
137,北海道,札幌市中央区,大通西２２丁目,,141.3228034892682,43.0562488073523,141.32447665506822,43.05772926068536
138,北海道,札幌市中央区,大通西２３丁目,,141.32145148562216,43.05605717653007,141.3231214600215,43.057561454442705
139,北海道,札幌市中央区,大通西２４丁目,,141.32008707314455,43.05587702403723,141.3217619937837,43.057375577297556
140,北海道,札幌市中央区,大通西２５丁目,,141.31860494101673,43.05566935441375,141.32041454289373,43.05713483120557
141,北海道,札幌市中央区,大通西２６丁目,,141.31709616105334,43.055476997323595,141.318876373439,43.056928047163474
142,北海道,札幌市中央区,大通西２７丁目,,141.31564109929323,43.05528123798032,141.3174160494597,43.056764132841906
143,北海道,札幌市中央区,大通西２８丁目,,141.31345372632038,43.055046248029704,141.31596336139785,43.05657027054683
144,北海道,札幌市中央区,南一条東１丁目,,141.3571434048236,43.05967770951275,141.35844188164353,43.06098026140973
145,北海道,札幌市中央区,南一条東２丁目,,141.35815080165096,43.05981639188097,141.35997684373098,43.061207465502584
146,北海道,札幌市中央区,南一条東３丁目,,141.359690969035,43.06002364721218,141.36152558060743,43.06143200703012
147,北海道,札幌市中央区,南一条東４丁目,,141.36127185597147,43.06022746985671,141.363226197576,43.06165284021495
148,北海道,札幌市中央区,南一条東５丁目,,141.36285808252148,43.060455234756915,141.36469291773884,43.061849824438276
149,北海道,札幌市中央区,南一条東６丁目,,141.3643916226535,43.060661402771785,141.3662645793396,43.06203365892962
150,北海道,札幌市中央区,南一条東７丁目,,141.36597360777202,43.06035252520882,141.36893413462602,43.06225421155665
151,北海道,札幌市中央区,南一条東８丁目,,141.3677949749262,43.06088268455287,141.37008628003122,43.062710720577286
152,北海道,札幌市中央区,南二条東１丁目,,141.35743287797158,43.05853797345999,141.3587431881749,43.05981639188097
153,北海道,札幌市中央区,南二条東２丁目,,141.35844188164353,43.05866744102705,141.3603009367448,43.06002364721218
154,北海道,札幌市中央区,南二条東３丁目,,141.35997684373098,43.05888879274405,141.3618299169434,43.06022746985671
155,北海道,札幌市中央区,南二条東４丁目,,141.36152558060743,43.05909055927103,141.3634141785115,43.06044211054796
156,北海道,札幌市中央区,南二条東５丁目,,141.36312989848545,43.059303915214436,141.3649780147502,43.060661402771785
157,北海道,札幌市中央区,南二条東６丁目,,141.36469291773884,43.05912589854936,141.36846656692558,43.061015286100364
158,北海道,札幌市中央区,南三条東１丁目,,141.35773406947894,43.05737498971732,141.35901698636653,43.05866744102705
159,北海道,札幌市中央区,南三条東２丁目,,141.3587431881749,43.05751644552368,141.36058182129588,43.05888879274405
160,北海道,札幌市中央区,南三条東３丁目,,141.3603009367448,43.0577299003667,141.36211448609262,43.05909055927103
161,北海道,札幌市中央区,南三条東４丁目,,141.3618299169434,43.057940201676445,141.36368947663618,43.059303915214436
162,北海道,札幌市中央区,南三条東５丁目,,141.3634141785115,43.05816923592356,141.3652314785157,43.05950006710267
163,北海道,札幌市中央区,南三条東６丁目,,141.36495007057545,43.05807277627898,141.36759886638134,43.05970025886159
164,北海道,札幌市中央区,南四条東１丁目,,141.35802139222918,43.056351694466024,141.35926490290885,43.05751644552368
165,北海道,札幌市中央区,南四条東２丁目,,141.35901698636653,43.05648311983016,141.36083160899614,43.0577299003667
166,北海道,札幌市中央区,南四条東３丁目,,141.36058182129588,43.0567046042403,141.36240107364227,43.057940201676445
167,北海道,札幌市中央区,南四条東４丁目,,141.36211448609262,43.056834525201275,141.36400405599704,43.05816923592356
168,北海道,札幌市中央区,南四条東５丁目,,141.36368947663618,43.057070340455546,141.3668689324038,43.05842007273262
169,北海道,札幌市中央区,南五条東１丁目,,141.35827445387375,43.05508939122939,141.35958367332105,43.05648311983016
170,北海道,札幌市中央区,南五条東２丁目,,141.35926490290885,43.05522514780188,141.3611431931072,43.0567046042403
171,北海道,札幌市中央区,南五条東３丁目,,141.36083160899614,43.055437289117364,141.36275295625552,43.05680822849663
172,北海道,札幌市中央区,南五条東４丁目,,141.36238000179858,43.055657674687055,141.36428860645248,43.056936751014206
173,北海道,札幌市中央区,南五条東５丁目,,141.36396290714055,43.055713057278716,141.3662489077132,43.05737566406983
174,北海道,札幌市中央区,南六条東１丁目,,141.35859637616892,43.0539429044537,141.35987142847722,43.05522514780188
175,北海道,札幌市中央区,南六条東２丁目,,141.35958367332105,43.05408157228498,141.3614643561106,43.055437289117364
176,北海道,札幌市中央区,南六条東３丁目,,141.3611431931072,43.05388270972064,141.36443703469138,43.055830695680285
177,北海道,札幌市中央区,南七条東１丁目,,141.35888026113702,43.052922613607386,141.3600984976013,43.05408157228498
178,北海道,札幌市中央区,南七条東２丁目,,141.35987142847722,43.05237032244445,141.36297321911013,43.054175341243564
179,北海道,札幌市中央区,南一条西１丁目,,141.35548410158538,43.05877210249092,141.35758754472945,43.060239490486
180,北海道,札幌市中央区,南一条西２丁目,,141.35388791145544,43.058644353478016,141.3557787645115,43.060003092349774
181,北海道,札幌市中央区,南一条西３丁目,,141.3523201772146,43.058427877437204,141.35419419011228,43.05979290138662
182,北海道,札幌市中央区,南一条西４丁目,,141.35074555240342,43.05822901577535,141.35260590082297,43.05958544301791
183,北海道,札幌市中央区,南一条西５丁目,,141.34919192546906,43.05800223190978,141.35105141329208,43.059371227665665
184,北海道,札幌市中央区,南一条西６丁目,,141.347617030285,43.05778928416546,141.34948152038442,43.05916475218285
185,北海道,札幌市中央区,南一条西７丁目,,141.34607561010947,43.05758568257656,141.3479209310847,43.058944373069245
186,北海道,札幌市中央区,南一条西８丁目,,141.3445201697133,43.05738125528369,141.3463531174399,43.0587179779513
187,北海道,札幌市中央区,南一条西９丁目,,141.34295610630085,43.05715495626716,141.3447996184299,43.05851964877728
188,北海道,札幌市中央区,南一条西１０丁目,,141.34123181560147,43.05692800233978,141.34324002585643,43.058321442704205
189,北海道,札幌市中央区,南一条西１１丁目,,141.33982332205005,43.05673214967242,141.34151213563683,43.0580629337295
190,北海道,札幌市中央区,南一条西１２丁目,,141.33828094095514,43.056520508700565,141.34011650371528,43.057885401361915
191,北海道,札幌市中央区,南一条西１３丁目,,141.33673159589912,43.05631087084462,141.33857734911464,43.05767598073725
192,北海道,札幌市中央区,南一条西１４丁目,,141.33517694847072,43.05598430723168,141.3370098830681,43.05745825502235
193,北海道,札幌市中央区,南一条西１５丁目,,141.33360587753666,43.0558999017633,141.33545283420492,43.05724320908288
194,北海道,札幌市中央区,南一条西１６丁目,,141.3320575553709,43.05569513059812,141.33389250725514,43.057030401755
195,北海道,札幌市中央区,南一条西１７丁目,,141.33050405491713,43.05549124266811,141.33233439711958,43.05682338308063
196,北海道,札幌市中央区,南一条西１８丁目,,141.32897250746447,43.055285802560725,141.33079268374198,43.05660420494901
197,北海道,札幌市中央区,南一条西１９丁目,,141.32737626821898,43.055040629901434,141.32925282709712,43.05640564914336
198,北海道,札幌市中央区,南一条西２０丁目,,141.3258637274206,43.0557412194839,141.32745736801806,43.05678194253077
199,北海道,札幌市中央区,南一条西２１丁目,,141.32447665506822,43.055546083540406,141.32607400709946,43.05660625827603
200,北海道,札幌市中央区,南一条西２２丁目,,141.3231214600215,43.05536574775748,141.32468553717158,43.05641893735128
201,北海道,札幌市中央区,南一条西２３丁目,,141.3217619937837,43.05518326061344,141.32332898054622,43.0562488073523
202,北海道,札幌市中央区,南一条西２４丁目,,141.32041454289373,43.05499745335701,141.32196929986029,43.05605717653007
203,北海道,札幌市中央区,南一条西２５丁目,,141.318876373439,43.054739603176564,141.32063263573565,43.05587702403723
204,北海道,札幌市中央区,南一条西２６丁目,,141.31830418444707,43.05462880360889,141.3191183221065,43.05566935441375
205,北海道,札幌市中央区,南一条西２７丁目,,141.31596336139785,43.05432561810143,141.3185978644905,43.05559415715931
206,北海道,札幌市中央区,南一条西２８丁目,,141.31414463407347,43.05419063103884,141.31614570768102,43.05528123798032
207,北海道,札幌市中央区,南二条西１丁目,,141.35580689446502,43.057709080513796,141.35787722346203,43.05909841386189
208,北海道,札幌市中央区,南二条西２丁目,,141.35419419011228,43.05749254807195,141.35606949715998,43.05885325449103
209,北海道,札幌市中央区,南二条西３丁目,,141.35260590082297,43.05726853479727,141.35447077326594,43.058644353478016
210,北海道,札幌市中央区,南二条西４丁目,,141.35105141329208,43.05705958997452,141.35290736733577,43.058427877437204
211,北海道,札幌市中央区,南二条西５丁目,,141.34948152038442,43.05685496560706,141.35134902816,43.05822901577535
212,北海道,札幌市中央区,南二条西６丁目,,141.3479209310847,43.05663691776316,141.3497703035841,43.05800223190978
213,北海道,札幌市中央区,南二条西７丁目,,141.3463531174399,43.056420973307304,141.34822238239656,43.05778928416546
214,北海道,札幌市中央区,南二条西８丁目,,141.3447996184299,43.0562102549295,141.34664068106338,43.05758568257656
215,北海道,札幌市中央区,南二条西９丁目,,141.34324002585643,43.056014467369025,141.34508250768152,43.05738125528369
216,北海道,札幌市中央区,南二条西１０丁目,,141.34151213563683,43.055767811808344,141.34357418826653,43.05715495626716
217,北海道,札幌市中央区,南二条西１１丁目,,141.34011650371528,43.055585862866785,141.3418002039536,43.05692800233978
218,北海道,札幌市中央区,南二条西１２丁目,,141.33857734911464,43.05537874314044,141.3404100494263,43.05673214967242
219,北海道,札幌市中央区,南二条西１３丁目,,141.3370098830681,43.055173170959705,141.33888178932753,43.056520508700565
220,北海道,札幌市中央区,南二条西１４丁目,,141.33512294218392,43.05460279437407,141.33730316752968,43.05631087084462
221,北海道,札幌市中央区,南二条西１５丁目,,141.33389250725514,43.054539403767954,141.33573654060274,43.05610439088114
222,北海道,札幌市中央区,南二条西１６丁目,,141.33233439711958,43.054528281892146,141.33418284801786,43.0558999017633
223,北海道,札幌市中央区,南二条西１７丁目,,141.33079268374198,43.05435918814977,141.33261324250324,43.05569513059812
224,北海道,札幌市中央区,南二条西１８丁目,,141.3291442389903,43.05410074938372,141.33107736760329,43.05549124266811
225,北海道,札幌市中央区,南二条西１９丁目,,141.32767233867898,43.05390568274534,141.3296717342488,43.05532872615553
226,北海道,札幌市中央区,南二条西２０丁目,,141.32635789658138,43.054376365480145,141.3277834720762,43.05593235911677
227,北海道,札幌市中央区,南二条西２１丁目,,141.32468553717158,43.05429612149186,141.32656536980528,43.05577269924054
228,北海道,札幌市中央区,南二条西２２丁目,,141.32332898054622,43.054301561843936,141.32493370918942,43.055546083540406
229,北海道,札幌市中央区,南二条西２３丁目,,141.32196929986029,43.054120120880455,141.323585066153,43.05536574775748
230,北海道,札幌市中央区,南二条西２４丁目,,141.3206266522431,43.05391681637965,141.32222385852688,43.05518326061344
231,北海道,札幌市中央区,南二条西２５丁目,,141.31894947389515,43.05353176322523,141.32089147235195,43.054969580961135
232,北海道,札幌市中央区,南二条西２６丁目,,141.31760965721918,43.052903706535446,141.31929024293623,43.054717904458315
233,北海道,札幌市中央区,南二条西２７丁目,,141.31614570768102,43.05306460139188,141.31790199972608,43.05452357684285
234,北海道,札幌市中央区,南二条西２８丁目,,141.31499710069681,43.05284072287671,141.31639367784723,43.05432561810143
235,北海道,札幌市中央区,南三条西１丁目,,141.35606949715998,43.05655835722702,141.35816161422335,43.05795190598851
236,北海道,札幌市中央区,南三条西２丁目,,141.35447077326594,43.05633814731309,141.3563681787903,43.057709080513796
237,北海道,札幌市中央区,南三条西３丁目,,141.35290736733577,43.05613204564896,141.35475726054958,43.05749254807195
238,北海道,札幌市中央区,南三条西４丁目,,141.35134902816,43.05592161901742,141.35319055351562,43.05726853479727
239,北海道,札幌市中央区,南三条西５丁目,,141.3497703035841,43.05571125177397,141.35163993691845,43.05705958997452
240,北海道,札幌市中央区,南三条西６丁目,,141.34822238239656,43.055493872708546,141.35005489994163,43.05685496560706
241,北海道,札幌市中央区,南三条西７丁目,,141.34664068106338,43.05523747568042,141.34855345353256,43.05663691776316
242,北海道,札幌市中央区,南三条西８丁目,,141.34508250768152,43.05506110054486,141.34691915332806,43.056420973307304
243,北海道,札幌市中央区,南三条西９丁目,,141.34310875507813,43.05472655436327,141.34536228376746,43.0562102549295
244,北海道,札幌市中央区,南三条西１０丁目,,141.3418002039536,43.054814896601385,141.34370294284162,43.056014467369025
245,北海道,札幌市中央区,南三条西１１丁目,,141.3404100494263,43.05456958613469,141.3419578106094,43.055767811808344
246,北海道,札幌市中央区,南三条西１２丁目,,141.3382867413549,43.054411815943325,141.34055756417297,43.055585862866785
247,北海道,札幌市中央区,南三条西１３丁目,,141.33622577599752,43.05451612030006,141.33837904561653,43.055298044861125
248,北海道,札幌市中央区,南三条西１４丁目,,141.334651075405,43.05439164361451,141.3363742067969,43.05502426037006
249,北海道,札幌市中央区,南三条西１５丁目,,141.332925648383,43.05427501387885,141.33471269927415,43.05473827579455
250,北海道,札幌市中央区,南三条西１６丁目,,141.33107736760329,43.05413982197871,141.33296256131433,43.054570241898745
251,北海道,札幌市中央区,南三条西１７丁目,,141.3296717342488,43.05404152079955,141.33111123861394,43.05435918814977
252,北海道,札幌市中央区,南三条西１８丁目,,141.32841045804045,43.05395387637197,141.32967914263062,43.05410074938372
253,北海道,札幌市中央区,南三条西２０丁目,,141.32624836394314,43.05372238860176,141.32792863943618,43.055036388566535
254,北海道,札幌市中央区,南三条西２１丁目,,141.32498102863616,43.05354028137785,141.32653187458303,43.0545996646007
255,北海道,札幌市中央区,南三条西２２丁目,,141.323585066153,43.0533493615771,141.32517087383314,43.054496388373586
256,北海道,札幌市中央区,南三条西２３丁目,,141.32222385852688,43.05315673303335,141.3237917923579,43.054301561843936
257,北海道,札幌市中央区,南三条西２４丁目,,141.32089147235195,43.05296151155723,141.32243825510983,43.054120120880455
258,北海道,札幌市中央区,南三条西２５丁目,,141.31933975739926,43.05276700337492,141.32107910566964,43.05391681637965
259,北海道,札幌市中央区,南三条西２６丁目,,141.3180350880523,43.0525349220098,141.31973989747107,43.053542574196264
260,北海道,札幌市中央区,南三条西２７丁目,,141.31639367784723,43.05232304835253,141.31810684851393,43.0534905738518
261,北海道,札幌市中央区,南三条西２８丁目,,141.31493578486538,43.052033061760184,141.31649555542364,43.05306460139188
262,北海道,札幌市中央区,南四条西１丁目,,141.3563681787903,43.05541927214159,141.35847476032896,43.05681210837651
263,北海道,札幌市中央区,南四条西２丁目,,141.35475726054958,43.05520577594342,141.35664442838728,43.05655835722702
264,北海道,札幌市中央区,南四条西３丁目,,141.35319055351562,43.0549328588323,141.35502674962908,43.05633814731309
265,北海道,札幌市中央区,南四条西４丁目,,141.35163993691845,43.05473067632541,141.35349650880997,43.05613204564896
266,北海道,札幌市中央区,南四条西５丁目,,141.35005489994163,43.054565694341335,141.35192469210702,43.05592161901742
267,北海道,札幌市中央区,南四条西６丁目,,141.3485021053779,43.05435446942462,141.35033769033316,43.05571125177397
268,北海道,札幌市中央区,南四条西７丁目,,141.34691915332806,43.05413594112593,141.3487888618273,43.055426162207766
269,北海道,札幌市中央区,南四条西８丁目,,141.34536228376746,43.053926720415184,141.34722614978637,43.05527370318162
270,北海道,札幌市中央区,南四条西９丁目,,141.34346921152815,43.05377452231011,141.34563387082443,43.05506110054486
271,北海道,札幌市中央区,南四条西１０丁目,,141.3419545839324,43.0536377936101,141.34378948126874,43.05496442528064
272,北海道,札幌市中央区,南四条西１１丁目,,141.34026829712528,43.05357662160536,141.34211559969128,43.05484929330563
273,北海道,札幌市中央区,南四条西１２丁目,,141.3384112374286,43.05336631813297,141.34051952422726,43.0546385690299
274,北海道,札幌市中央区,南四条西１３丁目,,141.33640438556137,43.05294824174847,141.33854697702571,43.054732135727455
275,北海道,札幌市中央区,南四条西１４丁目,,141.33471269927415,43.05317826814952,141.33655578231213,43.05451825994641
276,北海道,札幌市中央区,南四条西１５丁目,,141.33296256131433,43.05276825544898,141.33489279660517,43.05439164361451
277,北海道,札幌市中央区,南四条西１６丁目,,141.33128114464145,43.052671650059104,141.33316177180433,43.05427501387885
278,北海道,札幌市中央区,南四条西１７丁目,,141.329612632251,43.05233340010152,141.33151151818726,43.05415504116503
279,北海道,札幌市中央区,南四条西１８丁目,,141.3278714886494,43.052762826413954,141.32974375310275,43.05403838399778
280,北海道,札幌市中央区,南四条西２０丁目,,141.32653187458303,43.05263518748988,141.3280008560565,43.05389875216482
281,北海道,札幌市中央区,南四条西２１丁目,,141.32515335946786,43.052452290752505,141.3267868996291,43.05372238860176
282,北海道,札幌市中央区,南四条西２２丁目,,141.3237917923579,43.052258648988605,141.325406081727,43.053537889229304
283,北海道,札幌市中央区,南四条西２３丁目,,141.32243825510983,43.05206700463495,141.3240379019547,43.0533493615771
284,北海道,札幌市中央区,南四条西２４丁目,,141.32107910566964,43.051873547590795,141.32270134789258,43.05315673303335
285,北海道,札幌市中央区,南四条西２５丁目,,141.31962746050024,43.051664847127654,141.32135121307547,43.05296151155723
286,北海道,札幌市中央区,南四条西２６丁目,,141.31810684851393,43.05147096809977,141.3198577450999,43.05275061731552
287,北海道,札幌市中央区,南四条西２７丁目,,141.3165398675364,43.05127267724347,141.31837298105796,43.0525349220098
288,北海道,札幌市中央区,南四条西２８丁目,,141.31507295781793,43.051099121114,141.31693595473587,43.05262039002051
289,北海道,札幌市中央区,南五条西１丁目,,141.35664442838728,43.05439283872533,141.3587279825078,43.05566048503922
290,北海道,札幌市中央区,南五条西２丁目,,141.35501915288862,43.05405236429634,141.35695139711643,43.05541927214159
291,北海道,札幌市中央区,南五条西３丁目,,141.35349650880997,43.05389348028334,141.35529262302566,43.0551384600762
292,北海道,札幌市中央区,南五条西４丁目,,141.35193832088288,43.053690330991785,141.35375102222613,43.0549328588323
293,北海道,札幌市中央区,南五条西５丁目,,141.35033769033316,43.053400420279566,141.35224468397666,43.05476425741465
294,北海道,札幌市中央区,南五条西６丁目,,141.3487888618273,43.05318467414795,141.35065336387567,43.054565694341335
295,北海道,札幌市中央区,南五条西７丁目,,141.34722614978637,43.05299126731989,141.3490922604505,43.05435446942462
296,北海道,札幌市中央区,南五条西８丁目,,141.34563387082443,43.05278500057988,141.3475220158876,43.05413594112593
297,北海道,札幌市中央区,南五条西９丁目,,141.34354561660138,43.052568607448414,141.34589119392376,43.053926720415184
298,北海道,札幌市中央区,南五条西１０丁目,,141.34211559969128,43.05230201400855,141.34370991614412,43.05377452231011
299,北海道,札幌市中央区,南五条西１１丁目,,141.34063949313455,43.05242628140538,141.34227457815524,43.0537036801493
300,北海道,札幌市中央区,南五条西１２丁目,,141.33855330298755,43.05222285028833,141.34080604212193,43.0536405801567
301,北海道,札幌市中央区,南五条西１３丁目,,141.33659150188666,43.05227937746421,141.33866931051264,43.053411419072404
302,北海道,札幌市中央区,南五条西１４丁目,,141.33485571465275,43.05183025543875,141.336707207397,43.05328061487001
303,北海道,札幌市中央区,南五条西１５丁目,,141.33316177180433,43.05188909579175,141.33500065111622,43.05287748446521
304,北海道,札幌市中央区,南五条西１６丁目,,141.33148206237485,43.051556756053266,141.3333205476848,43.05276825544898
305,北海道,札幌市中央区,南五条西１７丁目,,141.32981498846112,43.05165737165828,141.33159903666748,43.052433188792676
306,北海道,札幌市中央区,南五条西１８丁目,,141.32800647990052,43.051592627466846,141.32989614032485,43.05286409498803
307,北海道,札幌市中央区,南五条西２０丁目,,141.3267868996291,43.051550527349875,141.32813227570438,43.05281166006657
308,北海道,札幌市中央区,南五条西２１丁目,,141.325406081727,43.05136342111117,141.3270520392665,43.05263518748988
309,北海道,札幌市中央区,南五条西２２丁目,,141.3240379019547,43.05117243290819,141.32566344552504,43.052452290752505
310,北海道,札幌市中央区,南五条西２３丁目,,141.32270134789258,43.05089702068405,141.32430992262684,43.052258648988605
311,北海道,札幌市中央区,南五条西２４丁目,,141.32135121307547,43.05068459472446,141.32298079257876,43.05206700463495
312,北海道,札幌市中央区,南五条西２５丁目,,141.3198577450999,43.0504177591812,141.32155932291838,43.051873547590795
313,北海道,札幌市中央区,南五条西２６丁目,,141.31837298105796,43.05017699985062,141.32007966893144,43.051664847127654
314,北海道,札幌市中央区,南五条西２７丁目,,141.31693595473587,43.049869453263554,141.31870367405742,43.05147096809977
315,北海道,札幌市中央区,南五条西２８丁目,,141.31574847440234,43.0501967507525,141.31739212007847,43.05127267724347
316,北海道,札幌市中央区,南六条西１丁目,,141.35679410846046,43.05312031590558,141.3590103731388,43.05494319393847
317,北海道,札幌市中央区,南六条西２丁目,,141.35530656358188,43.05290758128417,141.3572102404425,43.054270861916315
318,北海道,札幌市中央区,南六条西３丁目,,141.35375102222613,43.05270551293709,141.3556182913184,43.05410753519963
319,北海道,札幌市中央区,南六条西４丁目,,141.35223056532192,43.0524890763461,141.35407990292853,43.05389348028334
320,北海道,札幌市中央区,南六条西５丁目,,141.35065336387567,43.05227302849479,141.35254163867546,43.05362313582372
321,北海道,札幌市中央区,南六条西６丁目,,141.3490922604505,43.05205662006785,141.35092109708782,43.053400420279566
322,北海道,札幌市中央区,南六条西７丁目,,141.3475220158876,43.05184615797295,141.34939167667287,43.05318467414795
323,北海道,札幌市中央区,南六条西８丁目,,141.34594679285385,43.051633744677225,141.3478251632042,43.05299126731989
324,北海道,札幌市中央区,南六条西９丁目,,141.34370895904516,43.05145305870887,141.3462596857941,43.05298570368513
325,北海道,札幌市中央区,南六条西１０丁目,,141.3422281536725,43.0511830721083,141.34386252232,43.05256221536811
326,北海道,札幌市中央区,南六条西１１丁目,,141.34071115294253,43.05130467048102,141.34236518769623,43.05251594919315
327,北海道,札幌市中央区,南六条西１２丁目,,141.33868846951822,43.05107752817005,141.34082688876467,43.05242628140538
328,北海道,札幌市中央区,南六条西１３丁目,,141.33668457896482,43.051059467296874,141.33884093400147,43.05240400872063
329,北海道,札幌市中央区,南六条西１４丁目,,141.33502191837817,43.05066161584088,141.33687446068964,43.051943663750535
330,北海道,札幌市中央区,南六条西１５丁目,,141.3332884194948,43.0505392348187,141.33516607234947,43.05200281486068
331,北海道,札幌市中央区,南六条西１６丁目,,141.33162721439197,43.05040080516271,141.33347570668144,43.05166373592314
332,北海道,札幌市中央区,南六条西１７丁目,,141.329899806118,43.05030105077228,141.3317743142237,43.05176118905084
333,北海道,札幌市中央区,南六条西１８丁目,,141.3281476352467,43.0501773733632,141.33006384146518,43.05171008952921
334,北海道,札幌市中央区,南六条西２０丁目,,141.3270520392665,43.04963182982742,141.3283848871729,43.05170882884662
335,北海道,札幌市中央区,南六条西２１丁目,,141.32566344552504,43.04943845992689,141.32750056649348,43.051550527349875
336,北海道,札幌市中央区,南六条西２２丁目,,141.32430992262684,43.049269732938996,141.3261280297012,43.05136342111117
337,北海道,札幌市中央区,南六条西２３丁目,,141.32298079257876,43.04906895296168,141.32488267351093,43.05117243290819
338,北海道,札幌市中央区,南六条西２４丁目,,141.32163453642409,43.04888526677398,141.32341532871664,43.05089702068405
339,北海道,札幌市中央区,南六条西２５丁目,,141.3201594109074,43.04867676236318,141.3220807432979,43.050977483017505
340,北海道,札幌市中央区,南六条西２６丁目,,141.31870367405742,43.04855234703475,141.32055838565154,43.050731904659834
341,北海道,札幌市中央区,南六条西２７丁目,,141.31792666895277,43.04906594484241,141.31898977464735,43.05017699985062
342,北海道,札幌市中央区,南七条西１丁目,,141.3572102404425,43.05106044451218,141.36242727570206,43.05335511605215
343,北海道,札幌市中央区,南七条西２丁目,,141.3556182913184,43.05154291775415,141.35753114110366,43.05312031590558
344,北海道,札幌市中央区,南七条西３丁目,,141.35407990292853,43.05135904482868,141.35592992177075,43.05290758128417
345,北海道,札幌市中央区,南七条西４丁目,,141.35254163867546,43.051324596379224,141.35439038255805,43.05270551293709
346,北海道,札幌市中央区,南七条西５丁目,,141.35092109708782,43.051115788240566,141.35279797800254,43.0524890763461
347,北海道,札幌市中央区,南七条西６丁目,,141.34939167667287,43.05088660552187,141.35117640254362,43.05227302849479
348,北海道,札幌市中央区,南七条西７丁目,,141.34775932752973,43.05016254157076,141.34956942457055,43.05205662006785
349,北海道,札幌市中央区,南七条西８丁目,,141.3456723153643,43.05032416529959,141.34797221193006,43.05184615797295
350,北海道,札幌市中央区,南七条西９丁目,,141.34386252232,43.050251446050126,141.34581643158972,43.051552525292884
351,北海道,札幌市中央区,南七条西１０丁目,,141.34231149956997,43.05000515249309,141.34399651104104,43.05145305870887
352,北海道,札幌市中央区,南七条西１１丁目,,141.34081483357326,43.050047474142055,141.34246417620048,43.05140570609689
353,北海道,札幌市中央区,南七条西１２丁目,,141.33885562593738,43.0497537978021,141.34098609124624,43.051196247425814
354,北海道,札幌市中央区,南七条西１３丁目,,141.3368379017049,43.04977993619434,141.33900911564885,43.05118248392298
355,北海道,札幌市中央区,南七条西１４丁目,,141.33516607234947,43.04966296943843,141.33698471786877,43.050767187753955
356,北海道,札幌市中央区,南七条西１５丁目,,141.3334695433264,43.04938614703063,141.33532632207067,43.05066161584088
357,北海道,札幌市中央区,南七条西１６丁目,,141.3317743142237,43.04909968701378,141.33363299245323,43.05051178520747
358,北海道,札幌市中央区,南七条西１７丁目,,141.33006384146518,43.04898054331783,141.3319469730557,43.05040080516271
359,北海道,札幌市中央区,南七条西１８丁目,,141.3283291845304,43.04889786699448,141.33022591256648,43.05030105077228
360,北海道,札幌市中央区,南七条西２０丁目,,141.32750056649348,43.048617383622286,141.32853507750823,43.04976857425556
361,北海道,札幌市中央区,南七条西２１丁目,,141.32607760199045,43.0488240053572,141.3276369238143,43.04963182982742
362,北海道,札幌市中央区,南七条西２２丁目,,141.32488267351093,43.04859646193459,141.32628647183708,43.049431160619065
363,北海道,札幌市中央区,南七条西２３丁目,,141.32341532871664,43.04768694546733,141.32531932203995,43.049269732938996
364,北海道,札幌市中央区,南七条西２４丁目,,141.3220807432979,43.04714906177343,141.3237497200104,43.04906895296168
365,北海道,札幌市中央区,南七条西２５丁目,,141.32058049146033,43.046418577671204,141.3226205371974,43.04888526677398
366,北海道,札幌市中央区,南七条西２６丁目,,141.31938103618583,43.04594795329689,141.32117166207706,43.048679826179274
367,北海道,札幌市中央区,南八条西１丁目,,141.35772907709068,43.04956663457652,141.3616317846626,43.051793251404995
368,北海道,札幌市中央区,南八条西２丁目,,141.35592992177075,43.05011610572453,141.35850754074434,43.05190464824056
369,北海道,札幌市中央区,南八条西３丁目,,141.3544208551625,43.049905260053855,141.3563276270614,43.05166292844935
370,北海道,札幌市中央区,南八条西４丁目,,141.35279797800254,43.04968245083358,141.354780708888,43.051535474893456
371,北海道,札幌市中央区,南八条西５丁目,,141.35117640254362,43.04903524846937,141.35306516266402,43.051324596379224
372,北海道,札幌市中央区,南八条西６丁目,,141.34956942457055,43.04900789647372,141.35167254060698,43.051115788240566
373,北海道,札幌市中央区,南八条西７丁目,,141.34788886874534,43.04867294483213,141.34978035702972,43.05089355600524
374,北海道,札幌市中央区,南八条西８丁目,,141.34582278877608,43.0486986822169,141.3480654779331,43.05067203654031
375,北海道,札幌市中央区,南八条西９丁目,,141.3439092319083,43.048598761364445,141.3460330436992,43.05037179798796
376,北海道,札幌市中央区,南八条西１０丁目,,141.342484127948,43.0484884876639,141.3440752498501,43.05030521280642
377,北海道,札幌市中央区,南八条西１１丁目,,141.34096756590364,43.04837309058093,141.34267621343903,43.050129125669336
378,北海道,札幌市中央区,南八条西１２丁目,,141.33902530385083,43.04822809654414,141.34118341278798,43.049871023265965
379,北海道,札幌市中央区,南八条西１３丁目,,141.33698471786877,43.048090911335734,141.33921483760787,43.04990150125811
380,北海道,札幌市中央区,南八条西１４丁目,,141.33530232333084,43.0479748043243,141.33720664611744,43.04977993619434
381,北海道,札幌市中央区,南八条西１５丁目,,141.33361464408432,43.047862991369875,141.3355169013715,43.04948712610404
382,北海道,札幌市中央区,南八条西１６丁目,,141.3319469730557,43.04773970678589,141.33381329063053,43.04921658826459
383,北海道,札幌市中央区,南八条西１７丁目,,141.33023021048464,43.047623992264825,141.33208511612966,43.04909968701378
384,北海道,札幌市中央区,南八条西１８丁目,,141.32850360823772,43.04750498584757,141.33040957727314,43.049011453765786
385,北海道,札幌市中央区,南八条西２０丁目,,141.3277518723462,43.04745852652925,141.3286863387959,43.04866638461983
386,北海道,札幌市中央区,南八条西２１丁目,,141.32670717660602,43.04737773004145,141.32802633356593,43.049107919841454
387,北海道,札幌市中央区,南八条西２２丁目,,141.3252209505217,43.0473208571164,141.3269027239432,43.04890617037288
388,北海道,札幌市中央区,南八条西２３丁目,,141.3237497200104,43.0463965236534,141.32594724043975,43.04843170089981
389,北海道,札幌市中央区,南八条西２４丁目,,141.3226205371974,43.04602481355142,141.3240690038201,43.04768694546733
390,北海道,札幌市中央区,南八条西２５丁目,,141.32113248351428,43.045111034959426,141.32331955703043,43.04714906177343
391,北海道,札幌市中央区,南八条西２６丁目,,141.31967676565046,43.044183360232395,141.32144709206503,43.04623723479445
392,北海道,札幌市中央区,南九条西１丁目,,141.35708208355078,43.04874672299308,141.3607440444632,43.05028085602824
393,北海道,札幌市中央区,南九条西２丁目,,141.3563276270614,43.04904897357999,141.35772907709068,43.05028085602824
394,北海道,札幌市中央区,南九条西３丁目,,141.354780708888,43.04884507571417,141.35660335052074,43.05011610572453
395,北海道,札幌市中央区,南九条西４丁目,,141.35261565945996,43.047247774430296,141.35503748966653,43.049905260053855
396,北海道,札幌市中央区,南九条西５丁目,,141.35167254060698,43.04774647011548,141.35283832894035,43.049049178634625
397,北海道,札幌市中央区,南九条西６丁目,,141.34974084117152,43.04734365950035,141.35190438000163,43.04903524846937
398,北海道,札幌市中央区,南九条西７丁目,,141.3480654779331,43.04739267877686,141.34994358791624,43.0486986822169
399,北海道,札幌市中央区,南九条西８丁目,,141.3460330436992,43.04734192762872,141.34822965115876,43.048721110598244
400,北海道,札幌市中央区,南九条西９丁目,,141.34406257641598,43.047252949750394,141.3462091217294,43.048721110598244
401,北海道,札幌市中央区,南九条西１０丁目,,141.34265938512516,43.04693546638284,141.3442473737772,43.048598761364445
402,北海道,札幌市中央区,南九条西１１丁目,,141.34118341278798,43.04704122098222,141.34279884581383,43.0484884876639
403,北海道,札幌市中央区,南九条西１２丁目,,141.33921483760787,43.046903719630436,141.34134720407036,43.04837309058093
404,北海道,札幌市中央区,南九条西１３丁目,,141.33720664611744,43.046762491850686,141.33938297135163,43.04822809654414
405,北海道,札幌市中央区,南九条西１４丁目,,141.3355169013715,43.04681023796054,141.33735683167416,43.048090911335734
406,北海道,札幌市中央区,南九条西１５丁目,,141.33381329063053,43.0462994680487,141.33570019614055,43.0479748043243
407,北海道,札幌市中央区,南九条西１６丁目,,141.33208511612966,43.04640286296388,141.33398230484073,43.047862991369875
408,北海道,札幌市中央区,南九条西１７丁目,,141.33040957727314,43.04673496065012,141.3321942166792,43.04773970678589
409,北海道,札幌市中央区,南九条西１８丁目,,141.3286863387959,43.04616902742538,141.3305675329564,43.047623992264825
410,北海道,札幌市中央区,南九条西２０丁目,,141.32594724043975,43.04624283523667,141.32884573495753,43.04750498584757
411,北海道,札幌市中央区,南九条西２１丁目,,141.32331955703043,43.04508703321167,141.3265006432332,43.0473208571164
412,北海道,札幌市中央区,南九条西２２丁目,,141.32097484978112,43.04372162903109,141.32419210058126,43.04602481355142
413,北海道,札幌市中央区,南九条西２３丁目,,141.31972098842834,43.042488462421694,141.3223580312121,43.04488137525983
414,北海道,札幌市中央区,南１０条西１丁目,,141.35640191102792,43.046432200150925,141.36058950681198,43.04904897357999
415,北海道,札幌市中央区,南十条西２丁目,,141.35660335052074,43.04841192928366,141.35708208355078,43.04906387336862
416,北海道,札幌市中央区,南十条西３丁目,,141.35503748966653,43.04659098541378,141.35676729419592,43.04906387336862
417,北海道,札幌市中央区,南十条西６丁目,,141.34994358791624,43.0462588995805,141.35329014625088,43.04799751560538
418,北海道,札幌市中央区,南十条西７丁目,,141.34823535653442,43.046150041767184,141.3500968063893,43.0474449845628
419,北海道,札幌市中央区,南十条西８丁目,,141.3462091217294,43.04603274882874,141.34839185847213,43.04748748950331
420,北海道,札幌市中央区,南十条西９丁目,,141.34423389264094,43.04595681736504,141.34637984810595,43.04734192762872
421,北海道,札幌市中央区,南十条西１０丁目,,141.34282972065816,43.04585156988673,141.34435623641085,43.04703411984089
422,北海道,札幌市中央区,南十条西１１丁目,,141.34134720407036,43.04569982091729,141.34297504928168,43.04713045708064
423,北海道,札幌市中央区,南十条西１２丁目,,141.33938297135163,43.04557424374964,141.34152436076357,43.04704122098222
424,北海道,札幌市中央区,南十条西１３丁目,,141.33737008938328,43.0454290720234,141.33956440632144,43.046903719630436
425,北海道,札幌市中央区,南十条西１４丁目,,141.33565176908658,43.04532813913888,141.33755047684062,43.04692583190611
426,北海道,札幌市中央区,南十条西１５丁目,,141.33401223982676,43.04522906642661,141.33583562216236,43.04641642673137
427,北海道,札幌市中央区,南十条西１６丁目,,141.3322494695112,43.04510025892915,141.33415762909362,43.04651971198516
428,北海道,札幌市中央区,南十条西１７丁目,,141.33052393450706,43.0449511310145,141.33241744881414,43.04684781763186
429,北海道,札幌市中央区,南十条西１８丁目,,141.32887242773455,43.0448438364166,141.3307528185819,43.04627500397049
430,北海道,札幌市中央区,南十条西２０丁目,,141.32652938162101,43.04493428216626,141.32902314352472,43.04640188442608
431,北海道,札幌市中央区,南十条西２１丁目,,141.32398745662454,43.04413143254263,141.32722343026435,43.04629197391096
432,北海道,札幌市中央区,南十条西２２丁目,,141.32206543415057,43.04265655265975,141.32504080939785,43.044818272115435
433,北海道,札幌市中央区,南十条西２３丁目,,141.3203661225974,43.041034140208716,141.3232508425079,43.04341300333456
434,北海道,札幌市中央区,南十一条西１丁目,,141.35640191102792,43.044839117882624,141.36040410572897,43.046748375028535
435,北海道,札幌市中央区,南十一条西６丁目,,141.3500968063893,43.044815757974725,141.35216776760666,43.046383408956544
436,北海道,札幌市中央区,南十一条西７丁目,,141.3483922147842,43.04482296288018,141.3502818367393,43.0462588995805
437,北海道,札幌市中央区,南十一条西８丁目,,141.34637984810595,43.04468265803472,141.3485676584411,43.04617437287644
438,北海道,札幌市中央区,南十一条西９丁目,,141.3441233936917,43.04455291180215,141.34656200334737,43.04626470180653
439,北海道,札幌市中央区,南十一条西１０丁目,,141.34296999720402,43.044460355617666,141.34457969396905,43.04589196310379
440,北海道,札幌市中央区,南十一条西１１丁目,,141.34152436076357,43.0442380584667,141.3431476820383,43.04579751652181
441,北海道,札幌市中央区,南十一条西１２丁目,,141.33956440632144,43.04422925627169,141.34170049741653,43.04569982091729
442,北海道,札幌市中央区,南十一条西１３丁目,,141.33755047684062,43.04406055894861,141.33973225433502,43.04557424374964
443,北海道,札幌市中央区,南十一条西１４丁目,,141.33583562216236,43.04395287741611,141.3377310872664,43.0454290720234
444,北海道,札幌市中央区,南十一条西１５丁目,,141.33415474501828,43.04382288870927,141.3360120837292,43.04535581175261
445,北海道,札幌市中央区,南十一条西１６丁目,,141.33241244276203,43.043730417853475,141.33431230704758,43.04520285620372
446,北海道,札幌市中央区,南十一条西１７丁目,,141.3307528185819,43.04360625465829,141.33262808937047,43.045060281614234
447,北海道,札幌市中央区,南十一条西１８丁目,,141.3290594965986,43.04347539829029,141.3309151047199,43.0449511310145
448,北海道,札幌市中央区,南十一条西２０丁目,,141.32725275049884,43.04334253816896,141.32922140297075,43.04504953901799
449,北海道,札幌市中央区,南十一条西２１丁目,,141.32466998489215,43.04255846621114,141.32750022003637,43.04502237959726
450,北海道,札幌市中央区,南十一条西２２丁目,,141.323656582329,43.04184542264221,141.32591806966306,43.043612443336194
451,北海道,札幌市中央区,南十一条西２３丁目,,141.32130491902663,43.04042667368036,141.324590134018,43.04293726345308
452,北海道,札幌市中央区,南十二条西１丁目,,141.35655074079463,43.04378144741313,141.3601730098379,43.04512379906278
453,北海道,札幌市中央区,南十二条西６丁目,,141.35028810054794,43.0435228220733,141.35206396473376,43.04487718069282
454,北海道,札幌市中央区,南十二条西７丁目,,141.3485676584411,43.043493777494724,141.35045596021894,43.04492289106171
455,北海道,札幌市中央区,南十二条西８丁目,,141.34656200334737,43.0433584076701,141.34874379502307,43.04482296288018
456,北海道,札幌市中央区,南十二条西９丁目,,141.34457969396905,43.04322173990713,141.34673926267274,43.04468265803472
457,北海道,札幌市中央区,南十二条西１０丁目,,141.34314110571677,43.04325521959206,141.34473668000712,43.04455291180215
458,北海道,札幌市中央区,南十二条西１１丁目,,141.34170692902427,43.043129569693924,141.34331447914678,43.04433937019422
459,北海道,札幌市中央区,南十二条西１２丁目,,141.33973225433502,43.04292723692513,141.3418578950482,43.044355528652005
460,北海道,札幌市中央区,南十二条西１３丁目,,141.3377310872664,43.04275715936278,141.3399117013704,43.04422925627169
461,北海道,札幌市中央区,南十二条西１４丁目,,141.3360120837292,43.04262708362302,141.33789298057488,43.04406055894861
462,北海道,札幌市中央区,南十二条西１５丁目,,141.33431230704758,43.04253598396335,141.33617875558016,43.04395287741611
463,北海道,札幌市中央区,南十二条西１６丁目,,141.33262808937047,43.042368681787025,141.33450451908254,43.04382288870927
464,北海道,札幌市中央区,南十二条西１７丁目,,141.3309151047199,43.04225547377617,141.3328023692243,43.043730417853475
465,北海道,札幌市中央区,南十二条西１８丁目,,141.32922140297075,43.04214897195637,141.33109577707316,43.04360625465829
466,北海道,札幌市中央区,南十二条西２０丁目,,141.32750022003637,43.04209518439233,141.329404143894,43.04347539829029
467,北海道,札幌市中央区,南十二条西２１丁目,,141.32591806966306,43.04164396008598,141.32798050804408,43.04334253816896
468,北海道,札幌市中央区,南十二条西２２丁目,,141.324590134018,43.040952749585166,141.32673606242253,43.04255846621114
469,北海道,札幌市中央区,南十二条西２３丁目,,141.32235592492722,43.03949529443331,141.32542823221857,43.04184542264221
470,北海道,札幌市中央区,南十三条西１丁目,,141.35648176831685,43.04240558398653,141.3600492529315,43.044090854539874
471,北海道,札幌市中央区,南十三条西５丁目,,141.35207164029015,43.04237996093221,141.35402679471855,43.04344068753999
472,北海道,札幌市中央区,南十三条西６丁目,,141.35045944974243,43.04228884620499,141.352224670742,43.04361173476503
473,北海道,札幌市中央区,南十三条西７丁目,,141.34874379502307,43.04217350294215,141.35063386135937,43.04363047051891
474,北海道,札幌市中央区,南十三条西８丁目,,141.34673926267274,43.04203137488653,141.34890857409846,43.043493777494724
475,北海道,札幌市中央区,南十三条西９丁目,,141.3447617960657,43.04189198418004,141.34691175839242,43.0433584076701
476,北海道,札幌市中央区,南十三条西１０丁目,,141.34330549642053,43.04180233697652,141.3449363887103,43.043332170666105
477,北海道,札幌市中央区,南十三条西１１丁目,,141.34185522018018,43.04168267291015,141.34349139591316,43.04322061669876
478,北海道,札幌市中央区,南十三条西１２丁目,,141.33990894721677,43.042241180462014,141.34193914146488,43.043052228382834
479,北海道,札幌市中央区,南十三条西１３丁目,,141.33789298057488,43.041588237757004,141.34005618922276,43.04289659542097
480,北海道,札幌市中央区,南十三条西１４丁目,,141.33617875558016,43.04132477675764,141.33806811213697,43.04275715936278
481,北海道,札幌市中央区,南十三条西１５丁目,,141.33449216573098,43.04136667358251,141.33633571134726,43.04262708362302
482,北海道,札幌市中央区,南十三条西１６丁目,,141.3328023692243,43.041255842352584,141.33463884771697,43.042496219512806
483,北海道,札幌市中央区,南十三条西１７丁目,,141.33109577707316,43.041143981105755,141.3329327585353,43.042368681787025
484,北海道,札幌市中央区,南十三条西１８丁目,,141.329404143894,43.041052192905674,141.33123586064224,43.04225547377617
485,北海道,札幌市中央区,南十三条西２０丁目,,141.3282177099372,43.04077143877433,141.32960729684692,43.04216480849176
486,北海道,札幌市中央区,南十三条西２１丁目,,141.32673606242253,43.04001535958366,141.32960729684692,43.04232465819865
487,北海道,札幌市中央区,南十三条西２２丁目,,141.32542823221857,43.03927752970477,141.32823992277804,43.04164396008598
488,北海道,札幌市中央区,南十三条西２３丁目,,141.3232861620808,43.03834694489705,141.32694853185328,43.040952749585166
489,北海道,札幌市中央区,南十四条西１丁目,,141.3564147383119,43.04114760201129,141.35962470242637,43.04273118743555
490,北海道,札幌市中央区,南十四条西５丁目,,141.3521160578106,43.041429467850236,141.35437957066725,43.04241653154795
491,北海道,札幌市中央区,南十四条西６丁目,,141.35063386135937,43.04065336881498,141.35229261187592,43.04237996093221
492,北海道,札幌市中央区,南十四条西７丁目,,141.34890857409846,43.0405275512807,141.35083694730966,43.04228884620499
493,北海道,札幌市中央区,南十四条西８丁目,,141.34691175839242,43.04039246119852,141.34912978933977,43.04217350294215
494,北海道,札幌市中央区,南十四条西９丁目,,141.3449363887103,43.04024418341921,141.34710626938508,43.04203137488653
495,北海道,札幌市中央区,南十四条西１０丁目,,141.3434901113271,43.04015041101835,141.34514498725966,43.04189198418004
496,北海道,札幌市中央区,南十四条西１１丁目,,141.3420415750172,43.04004435106962,141.3436938604798,43.041772296208784
497,北海道,札幌市中央区,南十四条西１２丁目,,141.33999895902207,43.03989354695243,141.34225634328106,43.04236743642461
498,北海道,札幌市中央区,南十四条西１３丁目,,141.33805584614817,43.03974360512767,141.34028840731324,43.04173596380798
499,北海道,札幌市中央区,南十四条西１４丁目,,141.33634507242712,43.03963214679168,141.33828288442288,43.041452810508694
500,北海道,札幌市中央区,南十四条西１５丁目,,141.33463562208806,43.039543553683096,141.33655648266867,43.041464588543505
501,北海道,札幌市中央区,南十四条西１６丁目,,141.3329327585353,43.039508121272235,141.3347816621386,43.04134320898256
502,北海道,札幌市中央区,南十四条西１７丁目,,141.33123586064224,43.03919307588395,141.33344768195118,43.041255842352584
503,北海道,札幌市中央区,南十四条西１８丁目,,141.32823992277804,43.03860854851538,141.33206169540634,43.041143981105755
504,北海道,札幌市中央区,南十四条西１９丁目,,141.32530730429283,43.037387397989626,141.3295239922394,43.04001535958366
505,北海道,札幌市中央区,南十五条西１丁目,,141.35607941823667,43.03933510396766,141.35879470517204,43.04140311412813
506,北海道,札幌市中央区,南十五条西４丁目,,141.35415255656818,43.038905760113266,141.3560945874541,43.04156824923159
507,北海道,札幌市中央区,南十五条西５丁目,,141.35222589312525,43.03943840964513,141.3549077766765,43.04156478407367
508,北海道,札幌市中央区,南十五条西６丁目,,141.35083694730966,43.03933037775287,141.35247515100684,43.04075960547555
509,北海道,札幌市中央区,南十五条西７丁目,,141.34912978933977,43.03920910291727,141.35100554625012,43.04065336881498
510,北海道,札幌市中央区,南十五条西８丁目,,141.34710626938508,43.03906786623053,141.34930324854994,43.0405275512807
511,北海道,札幌市中央区,南十五条西９丁目,,141.34514498725966,43.038922229271826,141.34728484912628,43.04039246119852
512,北海道,札幌市中央区,南十五条西１０丁目,,141.3436938604798,43.03885889622258,141.3453192773058,43.04024418341921
513,北海道,札幌市中央区,南十五条西１１丁目,,141.34225634328106,43.03872957560066,141.34385697389752,43.04015041101835
514,北海道,札幌市中央区,南十五条西１２丁目,,141.34028840731324,43.038583723802944,141.34242155510447,43.04004435106962
515,北海道,札幌市中央区,南十五条西１３丁目,,141.33828288442288,43.03845431640274,141.34045694443492,43.03989354695243
516,北海道,札幌市中央区,南十五条西１４丁目,,141.33655648266867,43.038322585685314,141.3384418588596,43.03974360512767
517,北海道,札幌市中央区,南十五条西１５丁目,,141.33490463035756,43.03819925288362,141.33674810472235,43.03963214679168
518,北海道,札幌市中央区,南十五条西１６丁目,,141.33289789610672,43.038649606687066,141.33498711209032,43.04021773723673
519,北海道,札幌市中央区,南十五条西１７丁目,,141.33090972584876,43.03798502234945,141.3334831828637,43.0399736381127
520,北海道,札幌市中央区,南十五条西１８丁目,,141.3295239922394,43.03729477719037,141.33217964114846,43.03936054044565
521,北海道,札幌市中央区,南十五条西１９丁目,,141.32719919732605,43.03652016786744,141.33052738385723,43.03860854851538
522,北海道,札幌市中央区,南十六条西１丁目,,141.35430314002264,43.03606273081335,141.35775426137616,43.04014228974253
523,北海道,札幌市中央区,南十六条西４丁目,,141.35423860651173,43.03782796255878,141.355828277404,43.03943083722585
524,北海道,札幌市中央区,南十六条西５丁目,,141.35247515100684,43.038083857973504,141.3544086425845,43.03965630177093
525,北海道,札幌市中央区,南十六条西６丁目,,141.35100554625012,43.037982373729406,141.35263736096806,43.03943840964513
526,北海道,札幌市中央区,南十六条西７丁目,,141.34930324854994,43.037864441481794,141.35117728193885,43.03933037775287
527,北海道,札幌市中央区,南十六条西８丁目,,141.34728484912628,43.037718878424904,141.34947056261583,43.03920910291727
528,北海道,札幌市中央区,南十六条西９丁目,,141.34533699340864,43.03758147577651,141.34747384365957,43.03906786623053
529,北海道,札幌市中央区,南十六条西１０丁目,,141.34385697389752,43.03748385403971,141.3454907233093,43.03898601960124
530,北海道,札幌市中央区,南十六条西１１丁目,,141.34242155510447,43.03738780468834,141.3440145969899,43.03885889622258
531,北海道,札幌市中央区,南十六条西１２丁目,,141.34045694443492,43.03725426330094,141.34259712827773,43.03872957560066
532,北海道,札幌市中央区,南十六条西１３丁目,,141.3384418588596,43.03711670450989,141.3406323785376,43.038583723802944
533,北海道,札幌市中央区,南十六条西１４丁目,,141.33674810472235,43.036975747497316,141.33861774544974,43.03845431640274
534,北海道,札幌市中央区,南十六条西１５丁目,,141.33506104189564,43.03685101417636,141.3369057317875,43.038322585685314
535,北海道,札幌市中央区,南十六条西１６丁目,,141.3334831828637,43.037405286840226,141.33514024861753,43.03888367473841
536,北海道,札幌市中央区,南十六条西１７丁目,,141.33217964114846,43.03670228730698,141.33469028913032,43.038649606687066
537,北海道,札幌市中央区,南十六条西１８丁目,,141.33073029678386,43.03609087520818,141.3334009482191,43.03798502234945
538,北海道,札幌市中央区,南十六条西１９丁目,,141.32854438472992,43.035623090869706,141.33177929069805,43.03750272975193
539,北海道,札幌市中央区,南十七条西４丁目,,141.35435263834665,43.037193952922735,141.3555607463927,43.03818596758755
540,北海道,札幌市中央区,南十七条西５丁目,,141.35263736096806,43.03707470316003,141.35447504286375,43.038209494465654
541,北海道,札幌市中央区,南十七条西６丁目,,141.35117728193885,43.036970401750295,141.35274649942926,43.038083857973504
542,北海道,札幌市中央区,南十七条西７丁目,,141.34947056261583,43.036521097988235,141.35135392245027,43.037982373729406
543,北海道,札幌市中央区,南十七条西８丁目,,141.34747384365957,43.03638314904008,141.34964446649207,43.037864441481794
544,北海道,札幌市中央区,南十七条西９丁目,,141.3454907233093,43.03624596966342,141.3476408730064,43.037718878424904
545,北海道,札幌市中央区,南十七条西１０丁目,,141.3440145969899,43.036150565963084,141.3456677642719,43.03758147577651
546,北海道,札幌市中央区,南十七条西１１丁目,,141.34259712827773,43.03612211147351,141.3441772260357,43.03748385403971
547,北海道,札幌市中央区,南十七条西１２丁目,,141.3406323785376,43.035903876206895,141.34276951976258,43.03738780468834
548,北海道,札幌市中央区,南十七条西１３丁目,,141.33861774544974,43.035771232545024,141.34080303162798,43.03725426330094
549,北海道,札幌市中央区,南十七条西１４丁目,,141.33690431826128,43.03563503469374,141.33878702741475,43.03711670450989
550,北海道,札幌市中央区,南十七条西１５丁目,,141.33517292787676,43.035518303439005,141.3370703091288,43.03696450598016
551,北海道,札幌市中央区,南十七条西１６丁目,,141.3334009482191,43.03542909953526,141.33533641773815,43.03753372104046
552,北海道,札幌市中央区,南十七条西１７丁目,,141.3322733521088,43.03502496452304,141.3343582176315,43.03670228730698
553,北海道,札幌市中央区,南十七条西１８丁目,,141.3296433921075,43.03459581367805,141.33295803530245,43.03647787660435
554,北海道,札幌市中央区,南十八条西５丁目,,141.35412600584934,43.036601507894616,141.35510344177737,43.03723839537809
555,北海道,札幌市中央区,南十八条西６丁目,,141.3513125641494,43.03475785364396,141.3561240759924,43.0371642837053
556,北海道,札幌市中央区,南十八条西７丁目,,141.34964446649207,43.03544300851084,141.351472169791,43.03664594137457
557,北海道,札幌市中央区,南十八条西８丁目,,141.3476408730064,43.0350489289665,141.349812321838,43.036521097988235
558,北海道,札幌市中央区,南十八条西９丁目,,141.3456677642719,43.03490308783442,141.34782110124735,43.03638314904008
559,北海道,札幌市中央区,南十八条西１０丁目,,141.34417830992206,43.03478116364685,141.34585506608772,43.03624596966342
560,北海道,札幌市中央区,南十八条西１１丁目,,141.34276150588954,43.03486666762105,141.34435166810883,43.036224263348
561,北海道,札幌市中央区,南十八条西１２丁目,,141.34080303162798,43.03457189556501,141.34292181036128,43.03603369997523
562,北海道,札幌市中央区,南十八条西１３丁目,,141.33878702741475,43.03444146995059,141.34097177799566,43.035903876206895
563,北海道,札幌市中央区,南十八条西１４丁目,,141.3370703091288,43.034313073849,141.3389708655241,43.035771232545024
564,北海道,札幌市中央区,南十八条西１５丁目,,141.3353286688599,43.034172554318005,141.33724639581263,43.03563503469374
565,北海道,札幌市中央区,南十八条西１６丁目,,141.33367067978887,43.0345229429926,141.33542751113097,43.03546779778731
566,北海道,札幌市中央区,南十八条西１７丁目,,141.33112542506555,43.03335233826629,141.33427873829226,43.035566848214586
567,北海道,札幌市中央区,南十九条西５丁目,,141.35295805553926,43.03404499067475,141.35643414825202,43.03516658353491
568,北海道,札幌市中央区,南十九条西６丁目,,141.35144825784678,43.03400971622417,141.35322312214865,43.035735724757416
569,北海道,札幌市中央区,南十九条西７丁目,,141.34979665138007,43.033836136339445,141.35164958075237,43.03556838040765
570,北海道,札幌市中央区,南十九条西８丁目,,141.34782110124735,43.033703689071864,141.34997985553036,43.03518424601517
571,北海道,札幌市中央区,南十九条西９丁目,,141.34584212202878,43.033704374824204,141.34798007234718,43.0350489289665
572,北海道,札幌市中央区,南十九条西１０丁目,,141.34437341717214,43.03333689758582,141.34602415551174,43.03486395169627
573,北海道,札幌市中央区,南十九条西１１丁目,,141.3429061684286,43.033359500940655,141.34454052894668,43.034956254110334
574,北海道,札幌市中央区,南十九条西１２丁目,,141.34097177799566,43.03320078670719,141.343102753065,43.034689911301136
575,北海道,札幌市中央区,南十九条西１３丁目,,141.33896901549798,43.03305915742101,141.34115528210953,43.03457189556501
576,北海道,札幌市中央区,南十九条西１４丁目,,141.33724253562173,43.03295235185762,141.33914937562878,43.034407163496645
577,北海道,札幌市中央区,南十九条西１５丁目,,141.3347119040144,43.03270037550172,141.33736412513701,43.0342789941077
578,北海道,札幌市中央区,南十九条西１６丁目,,141.3328055578646,43.03222264267402,141.33557908326756,43.03458897544325
579,北海道,札幌市中央区,南二十条西５丁目,,141.352829637716,43.032693581688335,141.35661582601932,43.03427445899494
580,北海道,札幌市中央区,南二十条西６丁目,,141.3516422291364,43.032621004188506,141.35294826564083,43.03403805024424
581,北海道,札幌市中央区,南二十条西７丁目,,141.34997985553036,43.03249656463561,141.35182813179168,43.0339585523024
582,北海道,札幌市中央区,南二十条西８丁目,,141.34801317958903,43.03237160873628,141.3501690183568,43.033836136339445
583,北海道,札幌市中央区,南二十条西９丁目,,141.34598818637068,43.03222890284591,141.3481885662647,43.03385646681249
584,北海道,札幌市中央区,南二十条西１０丁目,,141.34456472663518,43.0318994748113,141.34622537132157,43.03342875360822
585,北海道,札幌市中央区,南二十条西１１丁目,,141.343102753065,43.032180622250706,141.34470525657713,43.03347645296721
586,北海道,札幌市中央区,南二十条西１２丁目,,141.34115528210953,43.03188769385995,141.34326228294927,43.033359500940655
587,北海道,札幌市中央区,南二十条西１３丁目,,141.33914937562878,43.03175333629969,141.3413291009549,43.03320078670719
588,北海道,札幌市中央区,南二十条西１４丁目,,141.33741369756754,43.0316476493821,141.33932629386513,43.03305915742101
589,北海道,札幌市中央区,南二十条西１５丁目,,141.33536342990485,43.03153154942094,141.33754026683098,43.033308742061486
590,北海道,札幌市中央区,南二十条西１６丁目,,141.3341966148374,43.031126131898,141.33643392506204,43.032720717517755
591,北海道,札幌市中央区,南二十一条西５丁目,,141.352370924394,43.02978718246818,141.35663256312108,43.0334149628897
592,北海道,札幌市中央区,南二十一条西６丁目,,141.35182813179168,43.03107851175399,141.3531527066221,43.03270420197155
593,北海道,札幌市中央区,南二十一条西７丁目,,141.3501690183568,43.031160981805925,141.35207193198286,43.032621004188506
594,北海道,札幌市中央区,南二十一条西８丁目,,141.3481885662647,43.03101988041095,141.350346705806,43.03249656463561
595,北海道,札幌市中央区,南二十一条西９丁目,,141.34619131826892,43.030910631953184,141.34835186569276,43.03237160873628
596,北海道,札幌市中央区,南二十一条西１０丁目,,141.34475870515993,43.030792457303164,141.34636941407823,43.03200538055971
597,北海道,札幌市中央区,南二十一条西１１丁目,,141.34326123950655,43.03069386551395,141.34486307434014,43.0322681454172
598,北海道,札幌市中央区,南二十一条西１２丁目,,141.3413291009549,43.03056248377819,141.34344311528807,43.032017096574165
599,北海道,札幌市中央区,南二十一条西１３丁目,,141.33932629386513,43.030411733304994,141.3414826717509,43.03188769385995
600,北海道,札幌市中央区,南二十一条西１４丁目,,141.33757184718328,43.030281972285245,141.3394965434048,43.03175333629969
601,北海道,札幌市中央区,南二十一条西１５丁目,,141.33643677041573,43.03029615246833,141.33775451341376,43.03191563675808
602,北海道,札幌市中央区,南二十一条西１６丁目,,141.3350945126171,43.02995622497807,141.33775677660321,43.03156477442776
603,北海道,札幌市中央区,南二十二条西６丁目,,141.35207193198286,43.02859933023801,141.35483482451008,43.031285444729896
604,北海道,札幌市中央区,南二十二条西７丁目,,141.350346705806,43.02981610316813,141.35224445015237,43.031285444729896
605,北海道,札幌市中央区,南二十二条西８丁目,,141.34835186569276,43.02967528671732,141.35052298683695,43.031160981805925
606,北海道,札幌市中央区,南二十二条西９丁目,,141.34636941407823,43.02954519970408,141.34851026004637,43.03101988041095
607,北海道,札幌市中央区,南二十二条西１０丁目,,141.34486307434014,43.02948716548309,141.34653395288552,43.030910631953184
608,北海道,札幌市中央区,南二十二条西１１丁目,,141.34344311528807,43.02944011719398,141.3450284253658,43.030792457303164
609,北海道,札幌市中央区,南二十二条西１２丁目,,141.3414826717509,43.02973612367512,141.34354576176105,43.03069386551395
610,北海道,札幌市中央区,南二十二条西１３丁目,,141.3394847631199,43.02906035151104,141.34163283195625,43.03056248377819
611,北海道,札幌市中央区,南二十二条西１４丁目,,141.33775677660321,43.028937275319436,141.33965763074343,43.03041100670773
612,北海道,札幌市中央区,南二十二条西１５丁目,,141.33560090038634,43.02875915831466,141.33793559735793,43.030281972285245
613,北海道,札幌市中央区,南二十三条西７丁目,,141.35052298683695,43.028475822194885,141.3524234945374,43.029939619676476
614,北海道,札幌市中央区,南二十三条西８丁目,,141.34851026004637,43.02832402747337,141.3506847182967,43.02981610316813
615,北海道,札幌市中央区,南二十三条西９丁目,,141.34655154904527,43.02818087758224,141.34868858805768,43.02967528671732
616,北海道,札幌市中央区,南二十三条西１０丁目,,141.34502815786288,43.02806932397664,141.34673174118768,43.02959457332865
617,北海道,札幌市中央区,南二十三条西１１丁目,,141.34360670408475,43.02796324741238,141.34522604230224,43.02952767787267
618,北海道,札幌市中央区,南二十三条西１２丁目,,141.34157394809728,43.027831438387125,141.3438017514367,43.02988777891201
619,北海道,札幌市中央区,南二十三条西１３丁目,,141.33965763074343,43.027732973504556,141.34182223017388,43.02917549495908
620,北海道,札幌市中央区,南二十三条西１４丁目,,141.3379269109008,43.02723805070219,141.3398303387933,43.02906035151104
621,北海道,札幌市中央区,南二十三条西１５丁目,,141.33597394125374,43.026984773169694,141.33854842310228,43.028875032532
622,北海道,札幌市中央区,南二十四条西７丁目,,141.3506847182967,43.02712465493327,141.35432016903007,43.02872918201439
623,北海道,札幌市中央区,南二十四条西８丁目,,141.34868858805768,43.0269901205048,141.35086644313776,43.028475822194885
624,北海道,札幌市中央区,南二十四条西９丁目,,141.34735599413713,43.02689824572549,141.3488646404207,43.02832402747337
625,北海道,札幌市中央区,南二十四条西１０丁目,,141.34522604230224,43.02674971892733,141.34753199622918,43.02822666488511
626,北海道,札幌市中央区,南二十四条西１１丁目,,141.3438017514367,43.026646948172306,141.3454046455349,43.02806932397664
627,北海道,札幌市中央区,南二十四条西１２丁目,,141.34182223017388,43.02651246212924,141.3439625074372,43.02796324741238
628,北海道,札幌市中央区,南二十四条西１３丁目,,141.3405239027252,43.025889398820546,141.34207047716328,43.027831438387125
629,北海道,札幌市中央区,南二十四条西１４丁目,,141.33854842310228,43.026015929578115,141.34153956540848,43.02794312258777
630,北海道,札幌市中央区,南二十四条西１５丁目,,141.33787559036023,43.026029344510896,141.33969816611824,43.02723805070219
631,北海道,札幌市中央区,南二十五条西７丁目,,141.35086644313776,43.02577348448966,141.35362748791724,43.02729091565866
632,北海道,札幌市中央区,南二十五条西８丁目,,141.3488646404207,43.02562269046274,141.35104806412417,43.02712465493327
633,北海道,札幌市中央区,南二十五条西９丁目,,141.34753199622918,43.02548964281958,141.3490568931498,43.0269901205048
634,北海道,札幌市中央区,南二十五条西１０丁目,,141.3454046455349,43.02534339712136,141.34771635205271,43.02689824572549
635,北海道,札幌市中央区,南二十五条西１１丁目,,141.34384181032217,43.02523625817342,141.34556582058374,43.02674971892733
636,北海道,札幌市中央区,南二十五条西１２丁目,,141.34200003901339,43.025124966068496,141.34401603925843,43.026641140089396
637,北海道,札幌市中央区,南二十五条西１３丁目,,141.3400970894723,43.0250502929361,141.3424250172158,43.026542565649876
638,北海道,札幌市中央区,南二十五条西１４丁目,,141.3390342024524,43.02470113615187,141.34124560525882,43.026317922397794
639,北海道,札幌市中央区,南二十六条西７丁目,,141.35104806412417,43.024312299808145,141.35310845578528,43.02589767916301
640,北海道,札幌市中央区,南二十六条西８丁目,,141.34905306193414,43.02446369911393,141.35119446062856,43.02577348448966
641,北海道,札幌市中央区,南二十六条西９丁目,,141.34771635205271,43.02435839811233,141.3492031512514,43.02558354617151
642,北海道,札幌市中央区,南二十六条西１０丁目,,141.34556582058374,43.02414176447398,141.34785782025858,43.02548964281958
643,北海道,札幌市中央区,南二十六条西１１丁目,,141.34377188484336,43.02403110099495,141.3457126718283,43.02534339712136
644,北海道,札幌市中央区,南二十六条西１２丁目,,141.34263685431534,43.023969643062856,141.34398410936038,43.02521709393097
645,北海道,札幌市中央区,南二十六条西１３丁目,,141.34128349592692,43.02402838663719,141.34283173866288,43.02544976070618
646,北海道,札幌市中央区,南二十六条西１４丁目,,141.34035874469402,43.02329112214647,141.3422629012822,43.02508459515049
647,北海道,札幌市中央区,南二十七条西７丁目,,141.35122763833394,43.023177013187976,141.3531305378775,43.02439293862551
648,北海道,札幌市中央区,南二十七条西８丁目,,141.34918371262287,43.023045751992726,141.3513696699878,43.02459575259581
649,北海道,札幌市中央区,南二十七条西９丁目,,141.34785302493967,43.02284485344734,141.34937185627362,43.024462349694964
650,北海道,札幌市中央区,南二十七条西１０丁目,,141.3457126718283,43.02270024952163,141.34807350067484,43.02427959547746
651,北海道,札幌市中央区,南二十七条西１１丁目,,141.344445469059,43.022802519174405,141.34586717230331,43.02414176447398
652,北海道,札幌市中央区,南二十七条西１２丁目,,141.3429826563345,43.02277553037837,141.34502842699402,43.02409233258746
653,北海道,札幌市中央区,南二十七条西１３丁目,,141.3419565239297,43.02276622039845,141.3438420162189,43.024219808513635
654,北海道,札幌市中央区,南二十七条西１４丁目,,141.3414976120849,43.02259637301393,141.34264648642636,43.023486880040366
655,北海道,札幌市中央区,南二十八条西８丁目,,141.3493535691126,43.02142068482488,141.35310855131974,43.02325015415541
656,北海道,札幌市中央区,南二十八条西９丁目,,141.3478837561852,43.021483533816884,141.34953599441064,43.02291606632497
657,北海道,札幌市中央区,南二十八条西１０丁目,,141.3458969690867,43.021535343401496,141.3481254959337,43.022812371124694
658,北海道,札幌市中央区,南二十八条西１１丁目,,141.34419380175325,43.02181973291569,141.34598196689169,43.0228953218853
659,北海道,札幌市中央区,南二十八条西１２丁目,,141.34264648642636,43.02147151943295,141.3450817310629,43.023108151655144
660,北海道,札幌市中央区,南二十八条西１３丁目,,141.3420841501438,43.02142810147702,141.34334044224883,43.02276622039845
661,北海道,札幌市中央区,南二十九条西８丁目,,141.34947317498944,43.02112015031926,141.35060327585379,43.022096060179244
662,北海道,札幌市中央区,南二十九条西９丁目,,141.34798937294863,43.020189003384566,141.3497443154805,43.02163433231672
663,北海道,札幌市中央区,南二十九条西１０丁目,,141.3460456641836,43.02005022519593,141.3481579976091,43.021671271220946
664,北海道,札幌市中央区,南二十九条西１１丁目,,141.34438759344695,43.01947737475869,141.34626109969523,43.02185252349406
665,北海道,札幌市中央区,南二十九条西１２丁目,,141.34321331161595,43.01952760322919,141.34552763897003,43.02182525163207
666,北海道,札幌市中央区,南三十条西９丁目,,141.3481579976091,43.01849841124878,141.34945173535752,43.0202835171707
667,北海道,札幌市中央区,南三十条西１０丁目,,141.3462302945754,43.017430770306476,141.34836532388687,43.020189003384566
668,北海道,札幌市中央区,南三十条西１１丁目,,141.3440274585839,43.016939462311655,141.34654320552798,43.019601886128186
669,北海道,札幌市中央区,北一条東１丁目,,141.35634310658835,43.06271837532745,141.3584356427107,43.0641184261758
670,北海道,札幌市中央区,北一条東２丁目,,141.3581391734537,43.0629677511818,141.3599928344348,43.0643213690281
671,北海道,札幌市中央区,北一条東３丁目,,141.35969789999518,43.063182140631525,141.36145184668737,43.06452261811422
672,北海道,札幌市中央区,北一条東４丁目,,141.36117752937037,43.06337450559662,141.3628860479719,43.06455765298786
673,北海道,札幌市中央区,北一条東５丁目,,141.36145058702593,43.063565252555065,141.3647585015279,43.0649504096365
674,北海道,札幌市中央区,北一条東６丁目,,141.36447716462493,43.06383019402693,141.36614336489808,43.065156253491594
675,北海道,札幌市中央区,北一条東７丁目,,141.365858536394,43.0640183389862,141.36781017768823,43.065386753022146
676,北海道,札幌市中央区,北一条東８丁目,,141.36758478570331,43.06423747467323,141.36946692907097,43.065607062935015
677,北海道,札幌市中央区,北一条東９丁目,,141.36921498373334,43.06446354201795,141.37142109569822,43.06584096885613
678,北海道,札幌市中央区,北一条東１０丁目,,141.37077338129697,43.06471978973987,141.373203613534,43.06611508959676
679,北海道,札幌市中央区,北一条東１１丁目,,141.37295665431975,43.06496645869735,141.37463899420013,43.066311988862886
680,北海道,札幌市中央区,北一条東１２丁目,,141.37434079412733,43.065159835381465,141.37726676628168,43.066639908103376
681,北海道,札幌市中央区,北一条東１３丁目,,141.3768139216986,43.06551731424775,141.37958995754607,43.06691808056131
682,北海道,札幌市中央区,北一条東１４丁目,,141.3787178015732,43.0659398200038,141.3811420241412,43.06732864645529
683,北海道,札幌市中央区,北一条東１５丁目,,141.38048915673807,43.06568270002186,141.38271859410793,43.06759136392499
684,北海道,札幌市中央区,北一条東１６丁目,,141.38188802491337,43.0660321364252,141.38421926145048,43.06782654770534
685,北海道,札幌市中央区,北一条東１７丁目,,141.38319510410406,43.066511892475944,141.38541353461915,43.06815111078079
686,北海道,札幌市中央区,北一条東１８丁目,,141.3843701695885,43.06687721143363,141.3868289222667,43.06856091953568
687,北海道,札幌市中央区,北一条東１９丁目,,141.3854949486985,43.06732464337099,141.38797756559077,43.06897457834097
688,北海道,札幌市中央区,北二条東１丁目,,141.35605413466936,43.06386570621804,141.3581391734537,43.065304261700035
689,北海道,札幌市中央区,北二条東２丁目,,141.3578424675495,43.0641184261758,141.35969789999518,43.065497821161095
690,北海道,札幌市中央区,北二条東３丁目,,141.35940558041852,43.0643213690281,141.36121370865408,43.06569302824201
691,北海道,札幌市中央区,北二条東４丁目,,141.36093079181566,43.064528033017396,141.36250185156638,43.06589056169879
692,北海道,札幌市中央区,北二条東５丁目,,141.3620630208641,43.06465320823209,141.36392972085739,43.06606322580598
693,北海道,札幌市中央区,北二条東６丁目,,141.36364897365172,43.06488540808011,141.36546572910814,43.066279198085944
694,北海道,札幌市中央区,北二条東７丁目,,141.36516566505813,43.065103566016866,141.3676733634033,43.06657513925108
695,北海道,札幌市中央区,北二条東８丁目,,141.36728716821239,43.06539714114312,141.3691280820805,43.06677939526441
696,北海道,札幌市中央区,北二条東９丁目,,141.36876817895617,43.06559345352029,141.3709804000884,43.067036514356886
697,北海道,札幌市中央区,北二条東１０丁目,,141.3706512298492,43.065843931256516,141.37291817097292,43.06730681806708
698,北海道,札幌市中央区,北二条東１１丁目,,141.37263444082458,43.06610959058267,141.3743784354595,43.0675103037425
699,北海道,札幌市中央区,北二条東１２丁目,,141.37404249570312,43.06631593438002,141.37675169022992,43.06792491027487
700,北海道,札幌市中央区,北二条東１３丁目,,141.37635298930286,43.06658648682559,141.3787178015732,43.06826455778966
701,北海道,札幌市中央区,北二条東１４丁目,,141.37771339443768,43.06691808056131,141.3806388271832,43.06882721077674
702,北海道,札幌市中央区,北二条東１５丁目,,141.3794802586929,43.067158572768406,141.38199410778287,43.06902433209379
703,北海道,札幌市中央区,北二条東１６丁目,,141.38044105806443,43.06726292914324,141.38319510410406,43.06933200907815
704,北海道,札幌市中央区,北二条東１７丁目,,141.38187553018992,43.06782654770534,141.3842718968879,43.0694784299943
705,北海道,札幌市中央区,北二条東１８丁目,,141.38349953887243,43.06805233779162,141.38567651460696,43.069629664313766
706,北海道,札幌市中央区,北二条東１９丁目,,141.38515780313986,43.0687576662477,141.38760313414897,43.069754135372825
707,北海道,札幌市中央区,北二条東２０丁目,,141.38692234002863,43.06775169349737,141.39002509060586,43.06973334316007
708,北海道,札幌市中央区,北三条東１丁目,,141.35576823799974,43.0650517385089,141.3578424675495,43.066504723647924
709,北海道,札幌市中央区,北三条東２丁目,,141.35754563323772,43.065304261700035,141.35940558041852,43.06671705786292
710,北海道,札幌市中央区,北三条東３丁目,,141.35909843334014,43.065497821161095,141.36093079181566,43.06690042147576
711,北海道,札幌市中央区,北三条東４丁目,,141.3606195300887,43.06569302824201,141.36247655700873,43.067129669928654
712,北海道,札幌市中央区,北三条東５丁目,,141.36226545289756,43.065894359756456,141.36378551480692,43.06730239182216
713,北海道,札幌市中央区,北三条東６丁目,,141.36359355311998,43.06608017825597,141.36570528019485,43.06754107059765
714,北海道,札幌市中央区,北三条東７丁目,,141.3652497744548,43.066355948540796,141.36728716821239,43.06779306563479
715,北海道,札幌市中央区,北三条東８丁目,,141.36693510910848,43.06657513925108,141.36876817895617,43.067836013328844
716,北海道,札幌市中央区,北三条東８丁目,,141.3677935276149,43.06677939526441,141.37055675420496,43.06856082084401
717,北海道,札幌市中央区,北三条東１０丁目,,141.3700873464269,43.06701337568698,141.37268392447342,43.06854789952603
718,北海道,札幌市中央区,北三条東１１丁目,,141.3724066825164,43.067314511590816,141.3738416382342,43.06861488679299
719,北海道,札幌市中央区,北三条東１２丁目,,141.37353534317472,43.06748267467513,141.3767785696995,43.068863467511086
720,北海道,札幌市中央区,北三条東１３丁目,,141.37637392344845,43.06798926374949,141.37812932103458,43.06901482920784
721,北海道,札幌市中央区,北三条東１４丁目,,141.37803591726194,43.06838700527142,141.38087533770195,43.069240517450176
722,北海道,札幌市中央区,北四条東１丁目,,141.35545533697427,43.066249749557834,141.35754563323772,43.06767110359057
723,北海道,札幌市中央区,北四条東２丁目,,141.3572524479905,43.066504723647924,141.35909843334014,43.06788696241083
724,北海道,札幌市中央区,北四条東３丁目,,141.358823547389,43.06671705786292,141.3606195300887,43.06809460830405
725,北海道,札幌市中央区,北四条東４丁目,,141.36015825835713,43.06690042147576,141.36228494543198,43.068716712673535
726,北海道,札幌市中央区,北四条東５丁目,,141.36189921947312,43.06712089298118,141.36365033164842,43.06871670574769
727,北海道,札幌市中央区,北四条東６丁目,,141.3633300967772,43.06730736910903,141.3655517812565,43.068641222828276
728,北海道,札幌市中央区,北四条東７丁目,,141.36500170754422,43.06754107059765,141.36729162878942,43.06862180739797
729,北海道,札幌市中央区,北四条東８丁目,,141.3671813971529,43.067764955308924,141.36849357958448,43.06858540043897
730,北海道,札幌市中央区,北五条東１丁目,,141.35515086732278,43.067457042890815,141.3572524479905,43.06877422566838
731,北海道,札幌市中央区,北五条東２丁目,,141.35697331249787,43.06767110359057,141.358823547389,43.06877422566838
732,北海道,札幌市中央区,北五条東３丁目,,141.358589258164,43.06788696241083,141.36031938043274,43.06875687353368
733,北海道,札幌市中央区,北一条西１丁目,,141.35457884281388,43.061861517538375,141.35667083183463,43.06386570621804
734,北海道,札幌市中央区,北一条西２丁目,,141.3529729392263,43.06162866558423,141.35499371521448,43.0636236866971
735,北海道,札幌市中央区,北一条西３丁目,,141.35141457795146,43.06163876757764,141.3532542071207,43.06340236395434
736,北海道,札幌市中央区,北一条西４丁目,,141.34983343539935,43.06073134408439,141.35186024394227,43.06319721640539
737,北海道,札幌市中央区,北一条西５丁目,,141.34828934763038,43.061015349448915,141.3502386136648,43.062983006693585
738,北海道,札幌市中央区,北一条西６丁目,,141.34673391290937,43.0605478430411,141.34878207891032,43.06277406182185
739,北海道,札幌市中央区,北一条西７丁目,,141.34529302837504,43.060573474690806,141.34716719207162,43.06255473782501
740,北海道,札幌市中央区,北一条西８丁目,,141.34344650706203,43.06041862698401,141.34559610229775,43.06235387786588
741,北海道,札幌市中央区,北一条西９丁目,,141.34203990135254,43.06020801417089,141.34405945759988,43.062137631829195
742,北海道,札幌市中央区,北一条西１０丁目,,141.34047920215943,43.060008162280916,141.34247225141831,43.06192615569276
743,北海道,札幌市中央区,北一条西１１丁目,,141.3389084257784,43.05979536222608,141.34091121514024,43.06171549114108
744,北海道,札幌市中央区,北一条西１２丁目,,141.33736539136999,43.059593919964264,141.3393225944877,43.0614995219197
745,北海道,札幌市中央区,北一条西１３丁目,,141.33582259697457,43.059017964041296,141.33781160237274,43.06128923778513
746,北海道,札幌市中央区,北一条西１４丁目,,141.3342634006887,43.059217907126104,141.33626056253053,43.061082943597675
747,北海道,札幌市中央区,北一条西１５丁目,,141.33270630844444,43.058939680162965,141.33468052819063,43.06086440121071
748,北海道,札幌市中央区,北一条西１６丁目,,141.3311504302948,43.05873187190577,141.33312913766719,43.06064705087027
749,北海道,札幌市中央区,北一条西１７丁目,,141.3295891689632,43.05851352186691,141.3315884526112,43.06080313006162
750,北海道,札幌市中央区,北一条西１８丁目,,141.3280519528569,43.05830536046775,141.33003383635284,43.060117728379495
751,北海道,札幌市中央区,北一条西１９丁目,,141.32645554774535,43.05810055929787,141.32847198293226,43.06000951062272
752,北海道,札幌市中央区,北一条西２０丁目,,141.32492275212948,43.05791399394274,141.3268933043221,43.05980060912242
753,北海道,札幌市中央区,北一条西２１丁目,,141.32369318851275,43.05772926068536,141.3254939064162,43.05959122650537
754,北海道,札幌市中央区,北一条西２２丁目,,141.32239490611784,43.057561454442705,141.3241404291754,43.05942352507996
755,北海道,札幌市中央区,北一条西２３丁目,,141.32104689590474,43.057375577297556,141.3228034892682,43.05924667234913
756,北海道,札幌市中央区,北一条西２４丁目,,141.3196884013976,43.05720527126803,141.32145148562216,43.05906061177785
757,北海道,札幌市中央区,北一条西２５丁目,,141.31803635740772,43.056814757414315,141.3201080874863,43.05932370867412
758,北海道,札幌市中央区,北一条西２６丁目,,141.31665589518101,43.05678978396584,141.3187915270338,43.05917374167402
759,北海道,札幌市中央区,北一条西２７丁目,,141.31520928189192,43.05657027054683,141.3171366181992,43.05875539759416
760,北海道,札幌市中央区,北一条西２８丁目,,141.31307026901794,43.056224443788686,141.31564109929323,43.05842600611082
761,北海道,札幌市中央区,北二条西１丁目,,141.3542824603725,43.0636236866971,141.35634310658835,43.0650517385089
762,北海道,札幌市中央区,北二条西２丁目,,141.35267364388486,43.06340236395434,141.35457884281388,43.06480909349506
763,北海道,札幌市中央区,北二条西３丁目,,141.3511226693485,43.06319721640539,141.3529729392263,43.064588095396324
764,北海道,札幌市中央区,北二条西４丁目,,141.34954891765923,43.062983006693585,141.35141457795146,43.06437435040059
765,北海道,札幌市中央区,北二条西５丁目,,141.3479819487449,43.06277406182185,141.34983343539935,43.064157803542884
766,北海道,札幌市中央区,北二条西６丁目,,141.34644463226684,43.06255473782501,141.34828934763038,43.063956972274646
767,北海道,札幌市中央区,北二条西７丁目,,141.3449974428887,43.06235387786588,141.34673391290937,43.0637429217729
768,北海道,札幌市中央区,北二条西８丁目,,141.34329475426063,43.062137631829195,141.34529302837504,43.06354496052658
769,北海道,札幌市中央区,北二条西９丁目,,141.3418339423524,43.06193550583634,141.34362592144916,43.06332631737626
770,北海道,札幌市中央区,北二条西１０丁目,,141.34019503679212,43.06171549114108,141.34211035751412,43.06311688593015
771,北海道,札幌市中央区,北二条西１１丁目,,141.33863514714753,43.0614995219197,141.34047920215943,43.06289349953674
772,北海道,札幌市中央区,北二条西１２丁目,,141.33706630962118,43.06128923778513,141.3389084257784,43.06267873710729
773,北海道,札幌市中央区,北二条西１３丁目,,141.33553300819435,43.061082943597675,141.33736539136999,43.06246655578296
774,北海道,札幌市中央区,北二条西１４丁目,,141.3339610176224,43.06086440121071,141.33582259697457,43.062252104163704
775,北海道,札幌市中央区,北二条西１５丁目,,141.33242409411386,43.06064705087027,141.3342634006887,43.06203408771641
776,北海道,札幌市中央区,北二条西１６丁目,,141.33084246942897,43.060432573012335,141.33270630844444,43.06182575627187
777,北海道,札幌市中央区,北二条西１７丁目,,141.3292838269237,43.060213248058325,141.3311504302948,43.06161205081913
778,北海道,札幌市中央区,北二条西１８丁目,,141.32773458667836,43.05993902891191,141.32961380950354,43.06140153451053
779,北海道,札幌市中央区,北二条西１９丁目,,141.32616514264652,43.05980060912242,141.32803602994164,43.0611980344695
780,北海道,札幌市中央区,北二条西２０丁目,,141.32462679992312,43.05959122650537,141.32645554774535,43.060993084821085
781,北海道,札幌市中央区,北二条西２１丁目,,141.32324618858397,43.05942352507996,141.32492275212948,43.0607806301362
782,北海道,札幌市中央区,北二条西２２丁目,,141.3221146399885,43.05924667234913,141.32369318851275,43.060584834999325
783,北海道,札幌市中央区,北二条西２３丁目,,141.32077253797266,43.05906061177785,141.32239490611784,43.060423043652946
784,北海道,札幌市中央区,北二条西２４丁目,,141.3194176214591,43.058877268403506,141.32104689590474,43.06023794332001
785,北海道,札幌市中央区,北二条西２５丁目,,141.31793536887457,43.05892657317593,141.31966797546053,43.06005743788273
786,北海道,札幌市中央区,北二条西２６丁目,,141.31645210276275,43.0588451172959,141.31812861492043,43.05985604757564
787,北海道,札幌市中央区,北二条西２７丁目,,141.3149983978176,43.05852957298135,141.3166789502049,43.05964626060172
788,北海道,札幌市中央区,北二条西２８丁目,,141.31283998877035,43.05805558255621,141.31524415647976,43.05945462914934
789,北海道,札幌市中央区,北三条西１丁目,,141.35398186796775,43.06480909349506,141.35605413466936,43.06625248697462
790,北海道,札幌市中央区,北三条西２丁目,,141.35237199441866,43.064588095396324,141.3542824603725,43.06600614110634
791,北海道,札幌市中央区,北三条西３丁目,,141.35081965051134,43.06437435040059,141.35267364388486,43.06578977168387
792,北海道,札幌市中央区,北三条西４丁目,,141.34925049089196,43.064157803542884,141.3511226693485,43.06558234185267
793,北海道,札幌市中央区,北三条西５丁目,,141.34769401241118,43.063956972274646,141.34954891765923,43.06537764204012
794,北海道,札幌市中央区,北三条西６丁目,,141.346131212951,43.0637429217729,141.3479819487449,43.06516584703821
795,北海道,札幌市中央区,北三条西７丁目,,141.34461364817847,43.06354496052658,141.34644463226684,43.0649540515264
796,北海道,札幌市中央区,北三条西８丁目,,141.34297622400507,43.06332631737626,141.3449974428887,43.06473856571675
797,北海道,札幌市中央区,北三条西９丁目,,141.34155414343263,43.06311688593015,141.34329475426063,43.064522205382566
798,北海道,札幌市中央区,北三条西１０丁目,,141.33988736413943,43.06289349953674,141.3418339423524,43.06431870358254
799,北海道,札幌市中央区,北三条西１１丁目,,141.33834116564472,43.06267873710729,141.34019503679212,43.06409058970129
800,北海道,札幌市中央区,北三条西１２丁目,,141.33677328421743,43.06246655578296,141.33863514714753,43.063888451102855
801,北海道,札幌市中央区,北三条西１３丁目,,141.3352136644207,43.062252104163704,141.33706630962118,43.06366804313351
802,北海道,札幌市中央区,北三条西１４丁目,,141.3336471925771,43.06203408771641,141.33553300819435,43.06346681045711
803,北海道,札幌市中央区,北三条西１５丁目,,141.3320969080349,43.06182575627187,141.3339610176224,43.06324334749329
804,北海道,札幌市中央区,北三条西１６丁目,,141.3305352566889,43.06161205081913,141.33242409411386,43.06303490287885
805,北海道,札幌市中央区,北三条西１７丁目,,141.32898095284534,43.06140153451053,141.33084246942897,43.06284322606863
806,北海道,札幌市中央区,北三条西１８丁目,,141.32739961046596,43.0611980344695,141.3292838269237,43.0626990815521
807,北海道,札幌市中央区,北三条西１９丁目,,141.32601863940621,43.060993084821085,141.32773458667836,43.06241226029449
808,北海道,札幌市中央区,北三条西２０丁目,,141.3243250962617,43.0607806301362,141.32616514264652,43.0622034528429
809,北海道,札幌市中央区,北三条西２１丁目,,141.3228726101799,43.060584834999325,141.32462679992312,43.06198798771885
810,北海道,札幌市中央区,北三条西２２丁目,,141.32182300012965,43.060423043652946,141.32326574039357,43.06182653954029
811,北海道,札幌市中央区,北三条西２３丁目,,141.32047832897715,43.06023794332001,141.3221146399885,43.06164039222093
812,北海道,札幌市中央区,北三条西２４丁目,,141.31913468357217,43.06005743788273,141.32077253797266,43.0614587150911
813,北海道,札幌市中央区,北三条西２５丁目,,141.31765496449145,43.05985604757564,141.3194176214591,43.061266975242916
814,北海道,札幌市中央区,北三条西２６丁目,,141.31615697556995,43.05964626060172,141.31793536887457,43.06106750061282
815,北海道,札幌市中央区,北三条西２７丁目,,141.31467858229223,43.05945462914934,141.31645210276275,43.06114523452583
816,北海道,札幌市中央区,北三条西２８丁目,,141.3133527903385,43.059265808348755,141.3149983978176,43.06037721286709
817,北海道,札幌市中央区,北三条西２９丁目,,141.31185610602517,43.05906637017439,141.31353794588253,43.06036700675393
818,北海道,札幌市中央区,北三条西３０丁目,,141.3096736314193,43.058716142647725,141.312105862706,43.06024240335832
819,北海道,札幌市中央区,北四条西１丁目,,141.35369831052805,43.06600614110634,141.35576752782302,43.067457042890815
820,北海道,札幌市中央区,北四条西２丁目,,141.35206867463296,43.06578977168387,141.35398186796775,43.06719846797099
821,北海道,札幌市中央区,北四条西３丁目,,141.35052421036497,43.06558234185267,141.35237199441866,43.06695387742844
822,北海道,札幌市中央区,北四条西４丁目,,141.34897915145734,43.06537764204012,141.35081965051134,43.06676324381517
823,北海道,札幌市中央区,北四条西５丁目,,141.34740871118643,43.06516584703821,141.34925049089196,43.06655486127665
824,北海道,札幌市中央区,北四条西６丁目,,141.34584505218618,43.0649540515264,141.34769401241118,43.06633155891186
825,北海道,札幌市中央区,北四条西７丁目,,141.3443630399907,43.06473856571675,141.346131212951,43.06610448907264
826,北海道,札幌市中央区,北四条西８丁目,,141.3426941445467,43.064522205382566,141.34463859583397,43.06589653872437
827,北海道,札幌市中央区,北四条西９丁目,,141.3412841724578,43.06431870358254,141.34297622400507,43.06567161236939
828,北海道,札幌市中央区,北四条西１０丁目,,141.3396033083094,43.06409058970129,141.34155414343263,43.06548437800968
829,北海道,札幌市中央区,北四条西１１丁目,,141.33803382206727,43.063888451102855,141.33988736413943,43.06525952425135
830,北海道,札幌市中央区,北四条西１２丁目,,141.33646609245235,43.06366804313351,141.33834116564472,43.065060500276005
831,北海道,札幌市中央区,北四条西１３丁目,,141.33491013696926,43.06346681045711,141.33677328421743,43.06484079281986
832,北海道,札幌市中央区,北四条西１４丁目,,141.3333586829676,43.06324334749329,141.3352136644207,43.064642749085216
833,北海道,札幌市中央区,北四条西１５丁目,,141.33179731198635,43.06303490287885,141.3336471925771,43.06442650545225
834,北海道,札幌市中央区,北四条西１６丁目,,141.33022738018752,43.06284322606863,141.3320969080349,43.06421339576131
835,北海道,札幌市中央区,北四条西１７丁目,,141.32868464055048,43.06262915230369,141.3305352566889,43.0640154593305
836,北海道,札幌市中央区,北四条西１８丁目,,141.32712364811846,43.06242138470997,141.32896628595861,43.06380850531721
837,北海道,札幌市中央区,北四条西１９丁目,,141.32556797574227,43.061576476387486,141.32741989481065,43.063591538743864
838,北海道,札幌市中央区,北四条西２０丁目,,141.3240305386998,43.06198798771885,141.32586975424903,43.06337867307553
839,北海道,札幌市中央区,北四条西２１丁目,,141.32280589865468,43.061777224880835,141.3243250962617,43.063165934266394
840,北海道,札幌市中央区,北四条西２２丁目,,141.32154843977477,43.06164039222093,141.32296081350802,43.06300448180104
841,北海道,札幌市中央区,北四条西２３丁目,,141.32020043987535,43.0614587150911,141.32182300012965,43.06282468232818
842,北海道,札幌市中央区,北四条西２４丁目,,141.31884435254622,43.061266975242916,141.32047832897715,43.0626333405236
843,北海道,札幌市中央区,北四条西２５丁目,,141.3173685324281,43.06106750061282,141.31913468357217,43.06245725081283
844,北海道,札幌市中央区,北四条西２６丁目,,141.3158912501305,43.06087172591291,141.31765496449145,43.06224563705531
845,北海道,札幌市中央区,北四条西２７丁目,,141.31438174468684,43.06065569561908,141.31615697556995,43.06204257310165
846,北海道,札幌市中央区,北四条西２８丁目,,141.31239187138345,43.06008657795526,141.3147498623282,43.06184611856671
847,北海道,札幌市中央区,北四条西２９丁目,,141.31158946063766,43.06024240335832,141.3126688913147,43.061576363653174
848,北海道,札幌市中央区,北四条西３０丁目,,141.3106742804015,43.06012207934492,141.31185610602517,43.06147491129301
849,北海道,札幌市中央区,北五条西１丁目,,141.35338977138505,43.06719846797099,141.35545533697427,43.06863106492078
850,北海道,札幌市中央区,北五条西２丁目,,141.35171566212495,43.06695387742844,141.35369831052805,43.068395774804365
851,北海道,札幌市中央区,北五条西３丁目,,141.35024031203247,43.06676324381517,141.35206867463296,43.06822245275071
852,北海道,札幌市中央区,北五条西４丁目,,141.348635895208,43.06655486127665,141.35052421036497,43.06799360613581
853,北海道,札幌市中央区,北五条西５丁目,,141.34710996484267,43.06633155891186,141.34897915145734,43.06774305361358
854,北海道,札幌市中央区,北五条西６丁目,,141.34555537428682,43.06610448907264,141.34740871118643,43.06747803392082
855,北海道,札幌市中央区,北五条西７丁目,,141.34411704307777,43.06589653872437,141.34584505218618,43.067239004316974
856,北海道,札幌市中央区,北五条西８丁目,,141.34219627608127,43.0656564429776,141.3443630399907,43.067013742711524
857,北海道,札幌市中央区,北五条西９丁目,,141.34085426714918,43.06544696081053,141.34258165990227,43.06714160465373
858,北海道,札幌市中央区,北五条西１０丁目,,141.33931627624327,43.06525952425135,141.34099197321294,43.066527676729194
859,北海道,札幌市中央区,北五条西１１丁目,,141.33772360480876,43.065060500276005,141.3396033083094,43.06642147079116
860,北海道,札幌市中央区,北五条西１２丁目,,141.33616536182578,43.06484079281986,141.33803382206727,43.066212059742256
861,北海道,札幌市中央区,北五条西１３丁目,,141.3346091986661,43.064642749085216,141.33646609245235,43.06601689758595
862,北海道,札幌市中央区,北五条西１４丁目,,141.33305094402252,43.06442650545225,141.33491013696926,43.06581153428854
863,北海道,札幌市中央区,北五条西１５丁目,,141.33150187786993,43.06421339576131,141.3333586829676,43.06559902846004
864,北海道,札幌市中央区,北五条西１６丁目,,141.32991967281163,43.0640154593305,141.33179731198635,43.06539494453414
865,北海道,札幌市中央区,北五条西１７丁目,,141.3283924026061,43.06380850531721,141.33022738018752,43.06517538391685
866,北海道,札幌市中央区,北五条西１８丁目,,141.32682064600237,43.063591538743864,141.32868464055048,43.064958422264716
867,北海道,札幌市中央区,北五条西１９丁目,,141.32527227369212,43.06337867307553,141.32712364811846,43.06472807143295
868,北海道,札幌市中央区,北五条西２０丁目,,141.32373452518954,43.063165934266394,141.32556797574227,43.06451265828383
869,北海道,札幌市中央区,北五条西２１丁目,,141.3223401448137,43.063058275877864,141.3240305386998,43.064318619468416
870,北海道,札幌市中央区,北五条西２２丁目,,141.32125073304817,43.062813799269456,141.3232425638137,43.06411468173709
871,北海道,札幌市中央区,北五条西２３丁目,,141.31989076586873,43.0626333405236,141.32149872704355,43.06397221258966
872,北海道,札幌市中央区,北五条西２４丁目,,141.31855825652246,43.06245725081283,141.32020043987535,43.06378428862946
873,北海道,札幌市中央区,北五条西２５丁目,,141.31621410264654,43.062157560031004,141.31884435254622,43.06353284911672
874,北海道,札幌市中央区,北五条西２６丁目,,141.31568664421326,43.062028328790234,141.31669260729066,43.06272458530082
875,北海道,札幌市中央区,北五条西２７丁目,,141.3140804346779,43.06184611856671,141.31575747308884,43.06343871319909
876,北海道,札幌市中央区,北五条西２８丁目,,141.31296818223726,43.06165471937076,141.31438174468684,43.063064985604306
877,北海道,札幌市中央区,北五条西２９丁目,,141.31096317608086,43.06145492051417,141.31327923489388,43.062983970278474
878,北海道,札幌市中央区,北六条西１０丁目,,141.33911488506078,43.06642147079116,141.3409430977,43.067692274420956
879,北海道,札幌市中央区,北六条西１１丁目,,141.33746690330696,43.066212059742256,141.33931627624327,43.067558006816924
880,北海道,札幌市中央区,北六条西１２丁目,,141.3359023963308,43.06601689758595,141.33772360480876,43.067311790354374
881,北海道,札幌市中央区,北六条西１３丁目,,141.3343336615861,43.06581153428854,141.33616536182578,43.06714524733308
882,北海道,札幌市中央区,北六条西１４丁目,,141.33275983211198,43.06559902846004,141.3346091986661,43.06693565053016
883,北海道,札幌市中央区,北六条西１５丁目,,141.3312172772738,43.06539494453414,141.33305094402252,43.06672997834456
884,北海道,札幌市中央区,北六条西１６丁目,,141.32965052205168,43.06517538391685,141.33150187786993,43.06651180686261
885,北海道,札幌市中央区,北六条西１７丁目,,141.32810921193706,43.064958422264716,141.32991967281163,43.066302772370285
886,北海道,札幌市中央区,北六条西１８丁目,,141.326540150559,43.06472807143295,141.3283924026061,43.06607352764311
887,北海道,札幌市中央区,北六条西１９丁目,,141.32498476829647,43.06451265828383,141.32682064600237,43.06586619161518
888,北海道,札幌市中央区,北六条西２０丁目,,141.32344788610536,43.064318619468416,141.32527227369212,43.06566211021801
889,北海道,札幌市中央区,北六条西２１丁目,,141.32227943566016,43.06411468173709,141.32373452518954,43.065453234683105
890,北海道,札幌市中央区,北六条西２２丁目,,141.32099806773368,43.06397586991618,141.32247149815356,43.06532100334278
891,北海道,札幌市中央区,北六条西２３丁目,,141.3196100728405,43.06378428862946,141.32127676763074,43.06512179691482
892,北海道,札幌市中央区,北六条西２４丁目,,141.31826326332586,43.06358883470849,141.31989076586873,43.064933641225984
893,北海道,札幌市中央区,北六条西２５丁目,,141.31612892271798,43.062689290648535,141.31878693279825,43.06473096591079
894,北海道,札幌市中央区,北六条西２６丁目,,141.31452757368456,43.062327774277186,141.31710748413326,43.0644966475755
895,北海道,札幌市中央区,北六条西２７丁目,,141.31381463881922,43.063064985604306,141.31545991263235,43.06504990454418
896,北海道,札幌市中央区,北六条西２８丁目,,141.31192403993785,43.06226554111512,141.3140804346779,43.06449406206089
897,北海道,札幌市中央区,北七条西１１丁目,,141.3370962554864,43.067311790354374,141.33911606159296,43.06850035070569
898,北海道,札幌市中央区,北七条西１２丁目,,141.3354031206456,43.06708443468747,141.33746690330696,43.06850035070569
899,北海道,札幌市中央区,北七条西１３丁目,,141.3340372013549,43.06693565053016,141.3358732902635,43.06826394216198
900,北海道,札幌市中央区,北七条西１４丁目,,141.33245552196558,43.06672997834456,141.3343336615861,43.06807260975928
901,北海道,札幌市中央区,北七条西１５丁目,,141.33091437376152,43.06651180686261,141.33275983211198,43.06785744608905
902,北海道,札幌市中央区,北七条西１６丁目,,141.3293556815975,43.066302772370285,141.3312172772738,43.06763963121401
903,北海道,札幌市中央区,北七条西１７丁目,,141.32778808290516,43.06607352764311,141.32965052205168,43.0674217968244
904,北海道,札幌市中央区,北七条西１８丁目,,141.3262557285854,43.06586619161518,141.32810921193706,43.067216667981526
905,北海道,札幌市中央区,北七条西１９丁目,,141.32469426069548,43.06566211021801,141.326540150559,43.06700315357656
906,北海道,札幌市中央区,北七条西２０丁目,,141.32314860828762,43.065453234683105,141.32498476829647,43.06678087269366
907,北海道,札幌市中央区,北七条西２１丁目,,141.32201380383904,43.06528177700216,141.32344788610536,43.06651691010446
908,北海道,札幌市中央区,北七条西２２丁目,,141.3207279036258,43.06512179691482,141.32213049418218,43.0663777488975
909,北海道,札幌市中央区,北七条西２３丁目,,141.31933083317423,43.064933641225984,141.32099806773368,43.06621012223755
910,北海道,札幌市中央区,北七条西２４丁目,,141.31798212144795,43.06473096591079,141.3196100728405,43.066024281382994
911,北海道,札幌市中央区,北七条西２５丁目,,141.31629328237517,43.06457484071732,141.31826326332586,43.0658317840351
912,北海道,札幌市中央区,北七条西２６丁目,,141.31478783002927,43.06433503546826,141.31711593846003,43.06616189226799
913,北海道,札幌市中央区,北七条西２７丁目,,141.31412657232076,43.06469782901722,141.31616026121253,43.06669541971248
914,北海道,札幌市中央区,北八条西１２丁目,,141.33562994436616,43.06831187706534,141.3370962554864,43.069098877972074
915,北海道,札幌市中央区,北八条西１３丁目,,141.33373518651408,43.06807260975928,141.3358037626538,43.0693703109778
916,北海道,札幌市中央区,北八条西１４丁目,,141.33216701434327,43.06785744608905,141.3340372013549,43.06920185784134
917,北海道,札幌市中央区,北八条西１５丁目,,141.33061727796837,43.06763963121401,141.33245552196558,43.06899868211974
918,北海道,札幌市中央区,北八条西１６丁目,,141.3290672543629,43.0674217968244,141.33091437376152,43.068775941327615
919,北海道,札幌市中央区,北八条西１７丁目,,141.32750408637094,43.067216667981526,141.3293556815975,43.06856668164876
920,北海道,札幌市中央区,北八条西１８丁目,,141.3259776812205,43.06700315357656,141.32778808290516,43.06835194883159
921,北海道,札幌市中央区,北八条西１９丁目,,141.32441757466196,43.06678087269366,141.3262557285854,43.06813636783686
922,北海道,札幌市中央区,北八条西２０丁目,,141.32282657940593,43.066579165354185,141.32469426069548,43.06791732873942
923,北海道,札幌市中央区,北八条西２１丁目,,141.32168936990578,43.0663777488975,141.32316422331178,43.067705473671516
924,北海道,札幌市中央区,北八条西２２丁目,,141.32062938465793,43.06621012223755,141.32201380383904,43.06756022679586
925,北海道,札幌市中央区,北八条西２３丁目,,141.31912323682877,43.066040590873904,141.32077177479061,43.067409413619295
926,北海道,札幌市中央区,北八条西２４丁目,,141.31778408404654,43.0658317840351,141.319407803567,43.067203765482276
927,北海道,札幌市中央区,北八条西２５丁目,,141.31566758870002,43.065714103252844,141.31818355994847,43.06833705269851
928,北海道,札幌市中央区,北八条西２６丁目,,141.31518851926108,43.06574681355703,141.31731881662228,43.06747583356554
929,北海道,札幌市中央区,北九条西１３丁目,,141.33351782820426,43.06920185784134,141.3349748457872,43.069973384550394
930,北海道,札幌市中央区,北九条西１４丁目,,141.33196082079562,43.06899868211974,141.33375935456877,43.07023947173832
931,北海道,札幌市中央区,北九条西１５丁目,,141.33032867947537,43.068775941327615,141.33216701434327,43.07005562562606
932,北海道,札幌市中央区,北九条西１６丁目,,141.32878169767068,43.06856668164876,141.33061727796837,43.069927440726865
933,北海道,札幌市中央区,北九条西１７丁目,,141.32719341439798,43.06835194883159,141.3290672543629,43.069711660083584
934,北海道,札幌市中央区,北九条西１８丁目,,141.32568608175356,43.06813636783686,141.32750408637094,43.06950642567707
935,北海道,札幌市中央区,北九条西１９丁目,,141.3241273026711,43.06791732873942,141.3259776812205,43.069290008572665
936,北海道,札幌市中央区,北九条西２０丁目,,141.32253511439603,43.067705473671516,141.32441757466196,43.069076248994726
937,北海道,札幌市中央区,北九条西２１丁目,,141.32100424685683,43.067502656777705,141.32282657940593,43.06884609341377
938,北海道,札幌市中央区,北九条西２２丁目,,141.3203506916235,43.067409413619295,141.32128610670594,43.06863449171468
939,北海道,札幌市中央区,北九条西２３丁目,,141.31883062311303,43.067203765482276,141.32062938465793,43.06854042830969
940,北海道,札幌市中央区,北九条西２４丁目,,141.3161379606196,43.06710968313905,141.31912323682877,43.06922445395948
941,北海道,札幌市中央区,北十条西１４丁目,,141.33173927731482,43.06979216809595,141.3328466723155,43.07068181185832
942,北海道,札幌市中央区,北十条西１５丁目,,141.3291503064012,43.06979216809595,141.332261899871,43.071540145815646
943,北海道,札幌市中央区,北十条西１６丁目,,141.32849306672713,43.069711660083584,141.33032867947537,43.07094543309537
944,北海道,札幌市中央区,北十条西１７丁目,,141.32691201639818,43.06950642567707,141.32878169767068,43.07085661414819
945,北海道,札幌市中央区,北十条西１８丁目,,141.32540116490463,43.069290008572665,141.32719341439798,43.07064067407681
946,北海道,札幌市中央区,北十条西１９丁目,,141.32383176799962,43.069076248994726,141.32568608175356,43.07043322712211
947,北海道,札幌市中央区,北十条西２０丁目,,141.32224216619963,43.06884609341377,141.3241273026711,43.070221980140744
948,北海道,札幌市中央区,北十条西２１丁目,,141.32045760219893,43.068657667381906,141.32253511439603,43.07032832265151
949,北海道,札幌市中央区,北十条西２２丁目,,141.32006374874777,43.06854042830969,141.32115613096838,43.06997783980339
950,北海道,札幌市中央区,北十条西２３丁目,,141.3186031061471,43.068333890020114,141.3203506916235,43.06965246063257
951,北海道,札幌市中央区,北十条西２４丁目,,141.3166368230625,43.068333890020114,141.31883062311303,43.07036287782891
952,北海道,札幌市中央区,北十一条西１３丁目,,141.33305134090645,43.06920889529699,141.33656382066755,43.07323825816025
953,北海道,札幌市中央区,北十一条西１４丁目,,141.331519131026,43.07103386499707,141.3348143543426,43.07438826236635
954,北海道,札幌市中央区,北十一条西１５丁目,,141.329595135439,43.06951236997741,141.3346403416421,43.07254769975497
955,北海道,札幌市中央区,北十一条西１６丁目,,141.3282720481808,43.07085661414819,141.32964541998217,43.072053523907016
956,北海道,札幌市中央区,北十一条西１７丁目,,141.32664848768863,43.07064067407681,141.32849306672713,43.0719958534311
957,北海道,札幌市中央区,北十一条西１８丁目,,141.32510608344649,43.07043322712211,141.32691201639818,43.07177886309077
958,北海道,札幌市中央区,北十一条西１９丁目,,141.323559348633,43.070221980140744,141.32540116490463,43.071569118510176
959,北海道,札幌市中央区,北十一条西２０丁目,,141.32190761459248,43.07000723150381,141.32383176799962,43.07134820482052
960,北海道,札幌市中央区,北十一条西２１丁目,,141.32002975861977,43.069915261982025,141.32231884002928,43.07126796836714
961,北海道,札幌市中央区,北十一条西２２丁目,,141.31942058828886,43.06997783980339,141.3208859022712,43.07098738526081
962,北海道,札幌市中央区,北十一条西２３丁目,,141.31843930522683,43.06934582982984,141.32045760219893,43.070627199411604
963,北海道,札幌市中央区,北十一条西２４丁目,,141.3172670668215,43.070039981944575,141.31908456434908,43.07130247548506
964,北海道,札幌市中央区,北十二条西１５丁目,,141.32956127578046,43.071702348429184,141.3326455978809,43.07360600821779
965,北海道,札幌市中央区,北十二条西１６丁目,,141.32785941603973,43.07160744775329,141.32964498879946,43.07304975614522
966,北海道,札幌市中央区,北十二条西１７丁目,,141.32605175220635,43.07177886309077,141.3286646013017,43.07305876994273
967,北海道,札幌市中央区,北十二条西１８丁目,,141.32478769723159,43.071569118510176,141.32664848768863,43.0729647603763
968,北海道,札幌市中央区,北十二条西１９丁目,,141.32325057541468,43.07134820482052,141.32510608344649,43.0727053100344
969,北海道,札幌市中央区,北十二条西２０丁目,,141.31832376758166,43.07098738526081,141.323559348633,43.0753475680634
970,北海道,札幌市中央区,北十二条西２３丁目,,141.3177674830557,43.07042972430057,141.32002975861977,43.07229147525155
971,北海道,札幌市中央区,北十三条西１５丁目,,141.3295258454905,43.073108203439496,141.3332512238273,43.07470404243303
972,北海道,札幌市中央区,北十三条西１６丁目,,141.3272406016558,43.07254769975497,141.329595135439,43.074558310582866
973,北海道,札幌市中央区,北十三条西１７丁目,,141.32572419597182,43.072381585731165,141.3284226986682,43.07400559302352
974,北海道,札幌市中央区,北十三条西１８丁目,,141.32449477489928,43.07268421015123,141.3263594128396,43.07387645420301
975,北海道,札幌市中央区,北十三条西１９丁目,,141.32293532298524,43.07249256129958,141.32483084495135,43.07432376811416
976,北海道,札幌市中央区,北十四条西１５丁目,,141.32949537337123,43.07386783617588,141.33367085895398,43.07619037591228
977,北海道,札幌市中央区,北十四条西１８丁目,,141.32446148970783,43.073342336971145,141.32623515805022,43.074551849044305
978,北海道,札幌市中央区,北十四条西２０丁目,,141.31913687676126,43.07367199638414,141.32351626369464,43.07605402392961
979,北海道,札幌市中央区,北十五条西１５丁目,,141.32946775083354,43.07615583869759,141.3320144880906,43.077557145568484
980,北海道,札幌市中央区,北十五条西１９丁目,,141.32351626369464,43.073911209174284,141.3249667390986,43.07495793047161
981,北海道,札幌市中央区,北十六条西１５丁目,,141.32944484893275,43.077469154388076,141.3314897666356,43.07841537334424
982,北海道,札幌市中央区,北十六条西１６丁目,,141.3209399475785,43.07357422793147,141.3295389507934,43.08164122278795
983,北海道,札幌市中央区,北十六条西２０丁目,,141.32145998132756,43.07432376811416,141.32404616406276,43.07584278965631
984,北海道,札幌市中央区,北十六条西２１丁目,,141.31958630217497,43.07473545107766,141.32259406457868,43.076792863041625
985,北海道,札幌市中央区,北十七条西,,141.32941764758257,43.07840308017391,141.33110727389172,43.0795945119925
986,北海道,札幌市中央区,北十八条西,,141.32936192987898,43.07957278431258,141.33060539260077,43.08133337421984
987,北海道,札幌市中央区,北二十条西,,141.3245658329948,43.081300559017954,141.32993310901173,43.08363360632488
988,北海道,札幌市中央区,北二十一条西,,141.32715672809456,43.083395628686446,141.32988194586508,43.08462980294191
989,北海道,札幌市中央区,北二十二条西,,141.32708041272733,43.08433615033748,141.32991371150987,43.08648972281599
990,北海道,札幌市北区,新川一条１丁目,,141.3192824505057,43.0923201459094,141.32120602599858,43.094330509680574
991,北海道,札幌市北区,新川一条２丁目,,141.3171235441069,43.092871540739395,141.32042442455622,43.095738301379676
992,北海道,札幌市北区,新川一条３丁目,,141.31562883660862,43.0944461909544,141.31835372265076,43.09676524881838
993,北海道,札幌市北区,新川一条４丁目,,141.31393353145347,43.0955211251434,141.31672489544042,43.09803465854184
994,北海道,札幌市北区,新川一条５丁目,,141.31217531708666,43.09673892394337,141.31496621881706,43.099212406460985
995,北海道,札幌市北区,新川一条６丁目,,141.30995258640394,43.09803720102493,141.31325925257852,43.10078126247417
996,北海道,札幌市北区,新川二条１丁目,,141.32042442455622,43.093698417315444,141.32279900679725,43.096197086764874
997,北海道,札幌市北区,新川二条２丁目,,141.31835372265076,43.094330509680574,141.32196508904806,43.097309019818574
998,北海道,札幌市北区,新川二条３丁目,,141.31672489544042,43.095723568368285,141.3203949080529,43.09875288310062
999,北海道,札幌市北区,新川二条４丁目,,141.31496621881706,43.09676524881838,141.31841828232803,43.099991567466056
1000,北海道,札幌市北区,新川二条５丁目,,141.31325925257852,43.09803465854184,141.31670909328344,43.10119846562516
1001,北海道,札幌市北区,新川二条６丁目,,141.31109391103604,43.099212406460985,141.3150461950692,43.10220504905451
1002,北海道,札幌市北区,新川二条７丁目,,141.3082145819935,43.09963186807146,141.31245000533931,43.103416579474604
1003,北海道,札幌市北区,新川二条８丁目,,141.3066499190507,43.10090325055462,141.31020900477824,43.104173783615515
1004,北海道,札幌市北区,新川二条９丁目,,141.30509080933032,43.10204502289223,141.30882920379486,43.10486910074829
1005,北海道,札幌市北区,新川二条１０丁目,,141.30448895035806,43.1031776753918,141.30758710106628,43.10549295819341
1006,北海道,札幌市北区,新川二条１１丁目,,141.30253097042555,43.10360621056322,141.30646518493293,43.10671003766335
1007,北海道,札幌市北区,新川二条１２丁目,,141.30035568918433,43.10502451496938,141.3042627422956,43.10790177521548
1008,北海道,札幌市北区,新川二条１３丁目,,141.29843027656676,43.106567084826864,141.30210466401206,43.10912451468858
1009,北海道,札幌市北区,新川三条１丁目,,141.32196508904806,43.095590383894034,141.32408860601933,43.09767421807511
1010,北海道,札幌市北区,新川三条２丁目,,141.32063275533227,43.096197086764874,141.32323090877264,43.09867735495561
1011,北海道,札幌市北区,新川三条３丁目,,141.31841828232803,43.09716101231254,141.32185314854186,43.10022139162893
1012,北海道,札幌市北区,新川三条４丁目,,141.31612218508914,43.09875288310062,141.31975696047027,43.10168257588177
1013,北海道,札幌市北区,新川三条５丁目,,141.31364139584258,43.10041599126733,141.3177919432828,43.10258672409352
